Date Published,Lat,Lon,Street,Size,Price Per SQMT
2023-10-23/2023-10-29,41.657316,44.872239390029385,კრწანისის რაიონი,1.0554089709762533e-05,1638.89
2023-10-23/2023-10-29,41.6671043,44.8930646,ოცხელის ქუჩა,1.0554089709762533e-05,1083.33
2023-10-23/2023-10-29,41.6721906,44.8773537,ბერი გაბრიელ სალოსის გამზირი,1.0554089709762533e-05,804.6
2023-10-23/2023-10-29,41.6735884,44.8523018,შ. ნადირაშვილის ქუჩა,4.221635883905013e-05,1196.46
2023-10-23/2023-10-29,41.6754651,44.8773492,მოსკოვის გამზირი,3.16622691292876e-05,1118.52
2023-10-23/2023-10-29,41.6760312,44.8189321,კრწანისის I გასასვლელი,2.1108179419525066e-05,2803.435
2023-10-23/2023-10-29,41.6770168,44.8388703,რიჩარდ ჰოლბრუკის ქუჩა,1.0554089709762533e-05,1735.85
2023-10-23/2023-10-29,41.6866296,44.8158428,გრიშაშვილის ქუჩა,1.0554089709762533e-05,1650.0
2023-10-23/2023-10-29,41.6872642,44.8237051,ბოდბის ქუჩის,1.0554089709762533e-05,1670.0
2023-10-23/2023-10-29,41.6886257,44.9786133,Tbilisi Railway Bypass,1.0554089709762533e-05,1142.86
2023-10-23/2023-10-29,41.68943,44.8595197,შალვა აზმაიფარაშვილის ქუჩა,1.0554089709762533e-05,1228.26
2023-10-23/2023-10-29,41.6904488,44.8869191,გიორგი აბაშვილის ქუჩა,1.0554089709762533e-05,1036.59
2023-10-23/2023-10-29,41.693202,44.8580962,დავით კვაჭანტირაძის ქუჩა,1.0554089709762533e-05,1341.46
2023-10-23/2023-10-29,41.6934591,44.8014495,თბილისი,2.1108179419525066e-05,2456.935
2023-10-23/2023-10-29,41.7001999,44.8519182,თეოფანე დავითაიას ქუჩა,1.0554089709762533e-05,843.37
2023-10-23/2023-10-29,41.70167015,44.847662265370126,ვაზისუბნის 1-ლი მიკრორაიონი,1.0554089709762533e-05,1240.74
2023-10-23/2023-10-29,41.7037263,44.7724829,გიორგი შატბერაშვილის ქუჩა,1.0554089709762533e-05,1968.42
2023-10-23/2023-10-29,41.7039551,44.8483474,ზურაბ პატარიძის ქუჩა,1.0554089709762533e-05,1250.0
2023-10-23/2023-10-29,41.7063787,44.8029491,მიხეილ წინამძღვრიშვილის ქუჩა,1.0554089709762533e-05,1331.42
2023-10-23/2023-10-29,41.7067619,44.7817388,სიმონ ჯანაშიას ქუჩა,1.0554089709762533e-05,1592.59
2023-10-23/2023-10-29,41.7071717,44.7885558,ნიკო ნიკოლაძის ქუჩა,1.0554089709762533e-05,946.6
2023-10-23/2023-10-29,41.7101506,44.8193015,პ. ბაგრატიონის ქუჩა,2.1108179419525066e-05,1360.295
2023-10-23/2023-10-29,41.7152447,44.7574165,ვლადიმერ გაბაშვილის ქუჩა,1.0554089709762533e-05,1.75
2023-10-23/2023-10-29,41.7181101,44.7833032,მერაბ ალექსიძის III შეს.,3.16622691292876e-05,1677.02
2023-10-23/2023-10-29,41.7191232,44.7370577,უნივერსიტეტის I შესახვევი,1.0554089709762533e-05,1155.41
2023-10-23/2023-10-29,41.7195641,44.7590348,ბახტრიონის ქუჩა,2.1108179419525066e-05,1666.665
2023-10-23/2023-10-29,41.7200371,44.7164636,ანა პოლიტკოვსკაიას ქუჩა,3.16622691292876e-05,1453.33
2023-10-23/2023-10-29,41.7215552,44.720010833729745,ვაჟა-ფშაველას გამზირის VI კვარტალი,1.0554089709762533e-05,1222.22
2023-10-23/2023-10-29,41.724162,44.7311381,ვაჟა-ფშაველას გამზირის 2 კვარტალი,1.0554089709762533e-05,1341.46
2023-10-23/2023-10-29,41.7243479,44.7620268,ადამ მიცკევიჩის ქუჩა,1.0554089709762533e-05,2500.0
2023-10-23/2023-10-29,41.7244082,44.7168682,ზურაბ ანჯაფარიძის ქუჩა,1.0554089709762533e-05,2180.33
2023-10-23/2023-10-29,41.7257647,44.73429918071663,ვაჟა-ფშაველას გამზირის II კვარტალი,1.0554089709762533e-05,1533.33
2023-10-23/2023-10-29,41.7259247,44.8021605,მიხეილ მესხის I შესახვევი,1.0554089709762533e-05,1108.11
2023-10-23/2023-10-29,41.7270196,44.7995778,ც.დადიანის,1.0554089709762533e-05,1277.11
2023-10-23/2023-10-29,41.7306873,44.7521294,ვ. ჩიქოვანის ქუჩა,2.1108179419525066e-05,1296.875
2023-10-23/2023-10-29,41.7333939,44.764809,ი. ნონეშვილის ქუჩა,1.0554089709762533e-05,1150.0
2023-10-23/2023-10-29,41.7399325,44.7706916,აკაკი ბაქრაძის ქუჩა,1.0554089709762533e-05,1071.43
2023-10-23/2023-10-29,41.742052099999995,44.85405842500002,თბილისის ზღვა,1.0554089709762533e-05,1333.33
2023-10-23/2023-10-29,41.743903849999995,44.73460484132602,ლისის ტბა,1.0554089709762533e-05,2246.38
2023-10-23/2023-10-29,41.7526098,44.78907518455388,,1.0554089709762533e-05,1058.82
2023-10-23/2023-10-29,41.7672372,44.7624451,გიორგი ბრწყინვალეს ქუჩა,1.0554089709762533e-05,1164.38
2023-10-23/2023-10-29,41.7849279,44.7642937,ასმათის ქუჩა,1.0554089709762533e-05,850.24
2023-10-23/2023-10-29,41.7867757,44.7569113,ვეფხისტყაოსნის ქუჩა,2.1108179419525066e-05,1017.1999999999999
2023-10-23/2023-10-29,41.7891173,44.8109021,თენგიზ შეშელიძის ქუჩა,1.0554089709762533e-05,1328.57
2023-10-23/2023-10-29,41.7924757,44.739673,არჩილ მეფის ქუჩა,1.0554089709762533e-05,1233.33
2023-10-23/2023-10-29,41.7938884,44.755381,პეტრე იბერის ქუჩა,1.0554089709762533e-05,1387.24
2023-10-23/2023-10-29,41.7983681,44.7742156,გრიგოლ ფერაძის ქუჩა,1.0554089709762533e-05,1133.33
2023-10-23/2023-10-29,41.8009587,44.7479203,ასი ათასი მოწამის ქუჩა,1.0554089709762533e-05,1327.59
2023-10-23/2023-10-29,41.8225231,44.7844664,წმინდა ქეთევან წამებულის სახელობის ეკლესია,6.33245382585752e-05,1456.69
2023-10-23/2023-10-29,41.8262639,44.8057542,ნოდარ დუმბაძის ქუჩა,1.0554089709762533e-05,882.35
2023-10-23/2023-10-29,41.839807,43.384652,Tbilisi,1.0554089709762533e-05,1935.48
2023-10-30/2023-11-05,41.6284342,44.9222642,რუსთავის გზატკეცილი,1.0554089709762533e-05,704.55
2023-10-30/2023-11-05,41.6305462,44.91769801455217,ფონიჭალა,2.1108179419525066e-05,736.365
2023-10-30/2023-11-05,41.6452857,44.7534459,თრიალეთის ქუჩა,8.443271767810026e-05,1549.055
2023-10-30/2023-11-05,41.6474869,44.7602777,გრ. რობაქიძის II შესახვევი,4.221635883905013e-05,1060.24
2023-10-30/2023-11-05,41.6477717,45.5540756,ბადიაურის გამგეობა (Badiauri Town Hall),2.1108179419525066e-05,1192.31
2023-10-30/2023-11-05,41.6530496,44.7553301,ვახტანგ გორგასლის ქუჩა,0.0005065963060686016,1372.005
2023-10-30/2023-11-05,41.657316,44.872239390029385,კრწანისის რაიონი,0.000158311345646438,2298.57
2023-10-30/2023-11-05,41.6613435,44.7134386,იუნკერთა ქუჩა,1.0554089709762533e-05,1200.0
2023-10-30/2023-11-05,41.6668639,44.8891798,ქინძმარაულის I შესახვევი,7.387862796833773e-05,1009.26
2023-10-30/2023-11-05,41.6669144,44.8973184,ნაკადულის ქუჩა,2.1108179419525066e-05,1038.46
2023-10-30/2023-11-05,41.6671043,44.8930646,ოცხელის ქუჩა,8.443271767810026e-05,1000.0
2023-10-30/2023-11-05,41.66818275,44.85258474812308,ორთაჭალის სასაფლაო,5.277044854881267e-05,1129.03
2023-10-30/2023-11-05,41.6696516,44.9135732,Gumathesi Street,1.0554089709762533e-05,788.46
2023-10-30/2023-11-05,41.6721906,44.8773537,ბერი გაბრიელ სალოსის გამზირი,0.0004432717678100264,1083.09
2023-10-30/2023-11-05,41.6732122,44.87276813300214,,2.1108179419525066e-05,783.96
2023-10-30/2023-11-05,41.6735884,44.8523018,შ. ნადირაშვილის ქუჩა,0.00039050131926121373,1114.94
2023-10-30/2023-11-05,41.6754651,44.8773492,მოსკოვის გამზირი,0.0007282321899736147,981.13
2023-10-30/2023-11-05,41.675465700000004,44.829620476266534,დიმიტრი გულუას მოედანი,3.16622691292876e-05,1642.86
2023-10-30/2023-11-05,41.6760312,44.8189321,კრწანისის I გასასვლელი,1.0554089709762533e-05,2831.33
2023-10-30/2023-11-05,41.6760677,44.8350528,დიმიტრი გულიას ქუჩა,9.49868073878628e-05,1298.7
2023-10-30/2023-11-05,41.67659915,44.85307476129846,მაიორ შალვა დოლიძის სახელობის სკვერი,0.0001266490765171504,1870.1
2023-10-30/2023-11-05,41.67671025,44.91284284491345,,1.0554089709762533e-05,706.67
2023-10-30/2023-11-05,41.6770168,44.8388703,რიჩარდ ჰოლბრუკის ქუჩა,0.00014775725593667546,1666.67
2023-10-30/2023-11-05,41.6770823,44.7794082,ტ. ტაბიძის 1-ლი შესახვევი,3.16622691292876e-05,2000.0
2023-10-30/2023-11-05,41.6772915,44.8826722,გრიგოლ ლორთქიფანიძის ქუჩა,1.0554089709762533e-05,1200.0
2023-10-30/2023-11-05,41.6775804,44.8498954,დოდაშვილის ქუჩა,0.0001266490765171504,1101.12
2023-10-30/2023-11-05,41.68173135,44.82019138848683,,0.00011609498680738787,1132.08
2023-10-30/2023-11-05,41.6820281,44.82412553155259,ჟანი კალანდაძის პარკი,0.0001266490765171504,1173.5149999999999
2023-10-30/2023-11-05,41.6820446,44.7681777,კოჯრის გზატკეცილი,2.1108179419525066e-05,2792.895
2023-10-30/2023-11-05,41.6823956,44.8400103,ნავთლუღის ქუჩა,0.0004116094986807388,1552.0
2023-10-30/2023-11-05,41.682465,44.9175141,ქიზიყის ქუჩა,2.1108179419525066e-05,912.965
2023-10-30/2023-11-05,41.6829162,44.839588,სტეფანე ჭრელაშვილის ქუჩა,1.0554089709762533e-05,1833.85
2023-10-30/2023-11-05,41.6833116,44.8706053,ჯავახეთის ქუჩა,0.0001266490765171504,1195.7
2023-10-30/2023-11-05,41.6835791,44.8267092,300 არაგველის ხიდი,1.0554089709762533e-05,2916.67
2023-10-30/2023-11-05,41.6843626,44.7838358,მარო მაყაშვილის აღმართი,3.16622691292876e-05,1813.95
2023-10-30/2023-11-05,41.685827,44.6936984,ვახტანგ გორგასლის I შეს.,1.0554089709762533e-05,1428.57
2023-10-30/2023-11-05,41.6860941,44.8883092,შუამთის ქუჩა,5.277044854881267e-05,1078.43
2023-10-30/2023-11-05,41.686574,44.8804163049863,მესამე მასივი,5.277044854881267e-05,1084.91
2023-10-30/2023-11-05,41.6866296,44.8158428,გრიშაშვილის ქუჩა,4.221635883905013e-05,1675.0
2023-10-30/2023-11-05,41.6867619,44.8268581,ბოჭორმის ქუჩა,9.49868073878628e-05,2108.28
2023-10-30/2023-11-05,41.6871874,44.8333234,ლეხ კაჩინსკის ქუჩა,4.221635883905013e-05,1501.28
2023-10-30/2023-11-05,41.6872822,44.7719586,დავით გურამიშვილის ქუჩა,0.0003271767810026385,1224.49
2023-10-30/2023-11-05,41.6882016,44.8276203,ვაჟა ივერიელის ქუჩა,2.1108179419525066e-05,1618.1799999999998
2023-10-30/2023-11-05,41.6882738,44.8111976,აბანოს I ჩიხი,2.1108179419525066e-05,2295.455
2023-10-30/2023-11-05,41.6886257,44.9786133,Tbilisi Railway Bypass,7.387862796833773e-05,1055.56
2023-10-30/2023-11-05,41.6887246,44.879234,კალოუბნის ქუჩა,2.1108179419525066e-05,1197.225
2023-10-30/2023-11-05,41.6888314,44.8204204,ფარნავაზ I,0.0004116094986807388,1186.44
2023-10-30/2023-11-05,41.68887245,44.80457257468296,ბეთლემის ეკლესია,1.0554089709762533e-05,1445.78
2023-10-30/2023-11-05,41.6888828,44.8515174,კაკაბეთის ქუჩა,1.0554089709762533e-05,833.33
2023-10-30/2023-11-05,41.6890089,44.7727506,ბესიკის ქუჩა,2.1108179419525066e-05,2123.565
2023-10-30/2023-11-05,41.6890352,44.8602673,გოჩა ონაშვილის ქუჩა,2.1108179419525066e-05,1093.75
2023-10-30/2023-11-05,41.6891698,44.91521861267774,ლუკოილი,2.1108179419525066e-05,2867.28
2023-10-30/2023-11-05,41.68943,44.8595197,შალვა აზმაიფარაშვილის ქუჩა,2.1108179419525066e-05,1251.12
2023-10-30/2023-11-05,41.6895389,44.8565577,დიმიტრი უზნაძის ქუჩა,6.33245382585752e-05,1528.6100000000001
2023-10-30/2023-11-05,41.6897908,44.86795670709502,,1.0554089709762533e-05,1291.67
2023-10-30/2023-11-05,41.6899513,44.8238325,გუთნის ქუჩა,1.0554089709762533e-05,2289.05
2023-10-30/2023-11-05,41.6899657,44.8357682,დოესის ქუჩა,1.0554089709762533e-05,2068.97
2023-10-30/2023-11-05,41.6900752,44.791722,ოქროყანის ქუჩა,1.0554089709762533e-05,882.35
2023-10-30/2023-11-05,41.6902213,44.7944809,ამაღლების შეს.,0.00011609498680738787,2280.7
2023-10-30/2023-11-05,41.6904488,44.8869191,გიორგი აბაშვილის ქუჩა,0.00013720316622691292,1000.0
2023-10-30/2023-11-05,41.6904495,44.7943299,შ. მესხის ქუჩა,1.0554089709762533e-05,1818.18
2023-10-30/2023-11-05,41.6906301,44.7972986,პაოლო იაშვილის ქუჩა,1.0554089709762533e-05,1555.56
2023-10-30/2023-11-05,41.690639000000004,44.69479108152969,წყნეთის ტყეპარკი,4.221635883905013e-05,1693.365
2023-10-30/2023-11-05,41.6908029,44.8467084,სერგი დურმიშიძის ქუჩა,1.0554089709762533e-05,1137.93
2023-10-30/2023-11-05,41.6909142,44.8257614,ახმეტის ქუჩა,4.221635883905013e-05,1550.0
2023-10-30/2023-11-05,41.6909594,44.7998978,ივანე მაჩაბლის ქუჩა,1.0554089709762533e-05,1666.67
2023-10-30/2023-11-05,41.691037,44.804668,აბო თბილელის ქუჩა,1.0554089709762533e-05,2100.0
2023-10-30/2023-11-05,41.6910712,44.8227987,ილიკო ქურხულის მოსახვევი,1.0554089709762533e-05,1631.58
2023-10-30/2023-11-05,41.6912848,44.8026872,მიხეილ ლერმონტოვის ქუჩა,6.33245382585752e-05,1778.95
2023-10-30/2023-11-05,41.6913092,44.8705358,ლიზა ნაკაშიძე-ბოლქვაძის ქუჩა,1.0554089709762533e-05,928.57
2023-10-30/2023-11-05,41.6915019,44.8341209,ჯორჯ ბუშის ქუჩა,1.0554089709762533e-05,1071.43
2023-10-30/2023-11-05,41.6916062,44.8706574,ვარკეთილი,1.0554089709762533e-05,1000.0
2023-10-30/2023-11-05,41.6918731,44.8151723,ავლაბრის მოედანი,1.0554089709762533e-05,944.44
2023-10-30/2023-11-05,41.6922896,44.8624694,ალექსანდრე წულუკიძის ქუჩა,0.00016886543535620053,1195.0
2023-10-30/2023-11-05,41.6923942,44.8052975,ვახტანგ ბერიძის ქუჩა,2.1108179419525066e-05,2822.23
2023-10-30/2023-11-05,41.6930311,44.8193296,ნიკიფორე ირბახის ქუჩა,6.33245382585752e-05,2652.56
2023-10-30/2023-11-05,41.6931351,44.7958236,პეტრე ჩაიკოვსკის ქუჩა,8.443271767810026e-05,2000.0
2023-10-30/2023-11-05,41.693202,44.8580962,დავით კვაჭანტირაძის ქუჩა,1.0554089709762533e-05,893.33
2023-10-30/2023-11-05,41.6932455,44.8133956,დუშეთის ქუჩა,1.0554089709762533e-05,10.91
2023-10-30/2023-11-05,41.6934591,44.8014495,თბილისი,0.00016886543535620053,1447.9099999999999
2023-10-30/2023-11-05,41.6936215,44.7945991,დანიელ ჭონქაძის ქუჩა,2.1108179419525066e-05,1839.2849999999999
2023-10-30/2023-11-05,41.6938707,44.8013443,თავისუფლების მოედანი,4.221635883905013e-05,1229.87
2023-10-30/2023-11-05,41.6943656,44.80171416847364,პუშკინის პარკი,1.0554089709762533e-05,1403.51
2023-10-30/2023-11-05,41.6947899,44.8159154,კონსტანტინე ერისთავის ქუჩა,0.0001266490765171504,1707.41
2023-10-30/2023-11-05,41.6948246,44.794709,შიო ჩიტაძის ქუჩა,3.16622691292876e-05,2100.0
2023-10-30/2023-11-05,41.6952643,44.9091933,ზაზა დამენიას ქუჩა,1.0554089709762533e-05,1820.0
2023-10-30/2023-11-05,41.6952649,44.8195904,მარტყოფის ქუჩა,3.16622691292876e-05,1562.5
2023-10-30/2023-11-05,41.6953823,44.8044122,ილია და ნინო ნაკაშიძეების ქუჩა,1.0554089709762533e-05,1733.33
2023-10-30/2023-11-05,41.69588645,44.78900241377039,მთაწმინდის პანთეონი,3.16622691292876e-05,2506.1
2023-10-30/2023-11-05,41.6960185,44.8824055,რომანოზ ხომლელის ქუჩა,0.00011609498680738787,1000.0
2023-10-30/2023-11-05,41.6964344,44.8541683,ნიკო მუსხელიშვილის ქუჩა,2.1108179419525066e-05,888.325
2023-10-30/2023-11-05,41.6965575,44.7963111,პავლე ინგოროყვას შესახევი,4.221635883905013e-05,2769.2650000000003
2023-10-30/2023-11-05,41.6966207,44.8452992,მესხეთის ქუჩა,2.1108179419525066e-05,1320.58
2023-10-30/2023-11-05,41.6968287,44.7933634,დიმიტრი ყიფიანის ქუჩა,4.221635883905013e-05,1513.1599999999999
2023-10-30/2023-11-05,41.696858899999995,44.808268736443296,ნიკოლოზ ბარათაშვილის ხიდი,1.0554089709762533e-05,2080.0
2023-10-30/2023-11-05,41.696996,44.8141498,ერევნის ქუჩა,3.16622691292876e-05,1388.89
2023-10-30/2023-11-05,41.6970028,44.8213852,საინგილოს ქუჩა,3.16622691292876e-05,1077.42
2023-10-30/2023-11-05,41.697489,44.7955152,მიხაი ზიჩის ქუჩა,8.443271767810026e-05,2352.94
2023-10-30/2023-11-05,41.697589,44.7921677,ვეძინის ქუჩა,2.1108179419525066e-05,1720.63
2023-10-30/2023-11-05,41.6976077,44.7965839,ტარას შევჩენკოს ქუჩა,2.1108179419525066e-05,3102.54
2023-10-30/2023-11-05,41.6983438,44.8010491,რევაზ თაბუკაშვილის ქუჩა,1.0554089709762533e-05,1634.15
2023-10-30/2023-11-05,41.6983773,44.8026339,ფხოვის ქუჩა,1.0554089709762533e-05,2045.45
2023-10-30/2023-11-05,41.6986866,44.6991008,არსენას ქუჩა,1.0554089709762533e-05,2000.0
2023-10-30/2023-11-05,41.6987354,44.793547,არსენა ოძელაშვილის ქუჩა,1.0554089709762533e-05,1075.27
2023-10-30/2023-11-05,41.6988754,44.8520951,შალვა მშველიძის ქუჩა,5.277044854881267e-05,1153.85
2023-10-30/2023-11-05,41.699344,44.8050557,სანაპიროს ქუჩა,1.0554089709762533e-05,1328.67
2023-10-30/2023-11-05,41.6994331,44.8110477,ნიკოლოზ ანთელავას ქუჩა,1.0554089709762533e-05,2468.44
2023-10-30/2023-11-05,41.6994363,44.8528847,შანდორ პეტეფის ქუჩა,0.00017941952506596306,1064.94
2023-10-30/2023-11-05,41.6997526,44.8173572,გუმბრის ქუჩა,1.0554089709762533e-05,1500.0
2023-10-30/2023-11-05,41.7000055,44.8879953,მიხეილ გახოკიძის ქუჩა,4.221635883905013e-05,1161.5500000000002
2023-10-30/2023-11-05,41.7001999,44.8519182,თეოფანე დავითაიას ქუჩა,3.16622691292876e-05,1279.07
2023-10-30/2023-11-05,41.7005039,44.7757512,რევაზ ჯაფარიძის ქუჩა,3.16622691292876e-05,1739.13
2023-10-30/2023-11-05,41.7008101,44.8090847,ნინო ჩხეიძის ქუჩა,2.1108179419525066e-05,1031.25
2023-10-30/2023-11-05,41.7011172,44.7903804,ვ. სარაჯიშვილის ქუჩა,1.0554089709762533e-05,1208.33
2023-10-30/2023-11-05,41.70115155,44.93839143472633,სამგორის რაიონი,6.33245382585752e-05,894.6700000000001
2023-10-30/2023-11-05,41.7015494,44.7957882,რევაზ ლაღიძის ქუჩა,3.16622691292876e-05,2333.33
2023-10-30/2023-11-05,41.7016292,44.8000225,მარია ბროსეს ქუჩა,1.0554089709762533e-05,2500.0
2023-10-30/2023-11-05,41.70167015,44.847662265370126,ვაზისუბნის 1-ლი მიკრორაიონი,0.00039050131926121373,849.17
2023-10-30/2023-11-05,41.7018156,44.7823367,ვალერიან გუნიას II გას.,1.0554089709762533e-05,1750.0
2023-10-30/2023-11-05,41.7029189,44.7926852,შოთა რუსთაველის გამზირი,5.277044854881267e-05,2750.0
2023-10-30/2023-11-05,41.7029471,44.7788582,გურამ რჩეულიშვილის ქუჩა,6.33245382585752e-05,1813.8449999999998
2023-10-30/2023-11-05,41.7029979,44.7815528,იაკობ გოგებაშვილის II ჩიხი,7.387862796833773e-05,2352.94
2023-10-30/2023-11-05,41.7030702,44.7845482,ანასტასია ერისთავ-ხოშტარიას ქუჩა,2.1108179419525066e-05,2750.0
2023-10-30/2023-11-05,41.7037263,44.7724829,გიორგი შატბერაშვილის ქუჩა,0.00010554089709762533,2407.3149999999996
2023-10-30/2023-11-05,41.7039551,44.8483474,ზურაბ პატარიძის ქუჩა,0.00011609498680738787,1254.39
2023-10-30/2023-11-05,41.7040318,44.7877933,Goethe-Institut in Georgien,4.221635883905013e-05,1233.755
2023-10-30/2023-11-05,41.7040582,44.8082696,მიხეილ ბუხაიძის ქუჩა,1.0554089709762533e-05,2494.91
2023-10-30/2023-11-05,41.7041899,44.7855688,მიხეილ ზანდუკელის ქუჩა,4.221635883905013e-05,2815.975
2023-10-30/2023-11-05,41.7043433,44.709083,ნუშის ბაღების ქუჩა,1.0554089709762533e-05,1104.62
2023-10-30/2023-11-05,41.7046742,44.770178,მარუხის გმირების ქუჩა,3.16622691292876e-05,2343.75
2023-10-30/2023-11-05,41.7051737,44.7865877,თამარ ჭოველიძის ქუჩა,3.16622691292876e-05,2600.0
2023-10-30/2023-11-05,41.7052411,44.7721433,ქობულეთის I. შესასვლელი,1.0554089709762533e-05,2176.87
2023-10-30/2023-11-05,41.7053779,44.8081745,ვეძათხევის ქუჩა,1.0554089709762533e-05,1143.26
2023-10-30/2023-11-05,41.7055727,44.7636174,აბაშელის ქუჩა,1.0554089709762533e-05,2831.86
2023-10-30/2023-11-05,41.7056436,44.7358963,ირაკლი უჩანეიშვილის ქუჩა,1.0554089709762533e-05,2380.95
2023-10-30/2023-11-05,41.7059334,44.788552,ვაშლოვანის ქუჩა,1.0554089709762533e-05,1506.85
2023-10-30/2023-11-05,41.7060477,44.7709185,მცხეთის ქუჩა,7.387862796833773e-05,2586.21
2023-10-30/2023-11-05,41.706205,44.7904128,ლეო ქიაჩელის ქუჩა,3.16622691292876e-05,2846.15
2023-10-30/2023-11-05,41.7063194,44.7747451,შროშის ქუჩა,2.1108179419525066e-05,2211.54
2023-10-30/2023-11-05,41.7063392,44.8481888,ჯუმბერ ლეჟავას I შესახვევი,2.1108179419525066e-05,1019.69
2023-10-30/2023-11-05,41.7063539,44.7579531,ცხვედაძის ქ.,4.221635883905013e-05,1620.31
2023-10-30/2023-11-05,41.7063787,44.8029491,მიხეილ წინამძღვრიშვილის ქუჩა,5.277044854881267e-05,1454.74
2023-10-30/2023-11-05,41.7064319,44.8012111,კიევის ქუჩა,1.0554089709762533e-05,1511.63
2023-10-30/2023-11-05,41.7064502,44.7682302,შალვა რადიანის ქუჩა,1.0554089709762533e-05,1600.0
2023-10-30/2023-11-05,41.7065053,44.7668787,არაყიშვილის I ჩიხი,8.443271767810026e-05,2391.3
2023-10-30/2023-11-05,41.7066772,44.7865125,მელიქიშვილის გამზირი,0.000158311345646438,3000.0
2023-10-30/2023-11-05,41.7067619,44.7817388,სიმონ ჯანაშიას ქუჩა,7.387862796833773e-05,1960.78
2023-10-30/2023-11-05,41.706933,44.7778367,ვასილ ბარნოვის ქუჩა,0.00013720316622691292,2142.86
2023-10-30/2023-11-05,41.7071717,44.7885558,ნიკო ნიკოლაძის ქუჩა,5.277044854881267e-05,1879.7
2023-10-30/2023-11-05,41.7074231,44.7806095,ვასილ პეტრიაშვილის ქუჩა,3.16622691292876e-05,2251.5
2023-10-30/2023-11-05,41.7076235,44.8075429,შიო არაგვისპირელის ქუჩა,1.0554089709762533e-05,756.1
2023-10-30/2023-11-05,41.7079852,44.7739069,ზაქარია ფალიაშვილის ქუჩა,0.00016886543535620053,1874.165
2023-10-30/2023-11-05,41.7080349,44.8590477,თბილისის ზღვის ახალი ქალაქი,0.0001266490765171504,1205.37
2023-10-30/2023-11-05,41.7082587,44.7935091,უ. ჩხეიძის ქუჩა,3.16622691292876e-05,2000.0
2023-10-30/2023-11-05,41.7082874,44.8055895,არნოლდ ჩიქობავას შესახვევი,2.1108179419525066e-05,1338.94
2023-10-30/2023-11-05,41.7087295,44.8445562,თამარ ღვალაძის II შესახვევი,2.1108179419525066e-05,1148.15
2023-10-30/2023-11-05,41.7087425,44.7978234,სანკტ-პეტერბურგის ქუჩა,1.0554089709762533e-05,1217.39
2023-10-30/2023-11-05,41.7087564,44.7789189,კორნელი კეკელიძის ქუჩა,7.387862796833773e-05,1714.29
2023-10-30/2023-11-05,41.7087786,44.7646793,ოთარი თაქთაქიშვილის ქუჩა,2.1108179419525066e-05,3164.615
2023-10-30/2023-11-05,41.7088451,44.7697397,მირცხულავას ქუჩა,0.0002216358839050132,1155.56
2023-10-30/2023-11-05,41.7089119,44.7830576,გიორგი ქუჩიშვილის ქუჩა,2.1108179419525066e-05,12.35
2023-10-30/2023-11-05,41.7089357,44.8034032,გიორგი მაზნიაშვილის ქუჩა,4.221635883905013e-05,1459.165
2023-10-30/2023-11-05,41.709379,44.79749485218963,მარჯანიშვილის მოედანი,1.0554089709762533e-05,1126.76
2023-10-30/2023-11-05,41.7095941,44.7968749,მარჯანიშვილი,2.1108179419525066e-05,947.3399999999999
2023-10-30/2023-11-05,41.7098152,44.7730111,ატენის ქუჩა,0.00014775725593667546,1528.5700000000002
2023-10-30/2023-11-05,41.7100623,44.8047404,მაქსიმ გორკის ქუჩა,2.1108179419525066e-05,1323.2350000000001
2023-10-30/2023-11-05,41.7101506,44.8193015,პ. ბაგრატიონის ქუჩა,5.277044854881267e-05,1200.0
2023-10-30/2023-11-05,41.7102387,44.7728277,გრიგოლ აბაშიძის ქუჩა,0.00010554089709762533,2568.255
2023-10-30/2023-11-05,41.7104505,44.7565755,ილო მოსაშვილის ქუჩა,2.1108179419525066e-05,1809.575
2023-10-30/2023-11-05,41.7109226,44.8148901,დავითაშვილის ქუჩა,1.0554089709762533e-05,950.82
2023-10-30/2023-11-05,41.71119055,44.72713699223983,,1.0554089709762533e-05,2058.82
2023-10-30/2023-11-05,41.7113175,44.7959967,დავით აღმაშენებლის გამზირი,7.387862796833773e-05,1527.27
2023-10-30/2023-11-05,41.7113604,44.7830694,კოტე მახარაძის ქუჩა,1.0554089709762533e-05,1951.22
2023-10-30/2023-11-05,41.7114294,44.7806317,ვარაზისხევის ქუჩა,4.221635883905013e-05,1351.3600000000001
2023-10-30/2023-11-05,41.7117169,44.72626671202614,,1.0554089709762533e-05,2375.3
2023-10-30/2023-11-05,41.7119183,44.7589481,ლევან მიქელაძის ქუჩა,1.0554089709762533e-05,1000.0
2023-10-30/2023-11-05,41.7120113,44.8775867,ვიქტორ კუპრაძის ქუჩა,0.00014775725593667546,1193.75
2023-10-30/2023-11-05,41.7121766,44.7811063,ჭაბუა ამირეჯიბის გზატკეცილი,6.33245382585752e-05,1840.91
2023-10-30/2023-11-05,41.7125321,44.7667872,"ზ, ავალიშვილის ქუჩა",6.33245382585752e-05,2437.845
2023-10-30/2023-11-05,41.7126196,44.7670307,ნინო რამიშვილის ქუჩა,6.33245382585752e-05,2938.6
2023-10-30/2023-11-05,41.7127756,44.7584983,თენგიზ აბულაძის ქუჩა,1.0554089709762533e-05,2000.0
2023-10-30/2023-11-05,41.7131224,44.8050886,გიორგი ერისთავის ქუჩა,1.0554089709762533e-05,1766.67
2023-10-30/2023-11-05,41.7132578,44.7088932,წყნეთის გზატკეცილი,0.00030606860158311345,1679.39
2023-10-30/2023-11-05,41.7133973,44.7164283,,1.0554089709762533e-05,1266.67
2023-10-30/2023-11-05,41.7134765,44.8031527,გიორგი სხულუხიას ქუჩა,1.0554089709762533e-05,823.53
2023-10-30/2023-11-05,41.7136501,44.7955148,გ. ტოვსტონოგოვის ქუჩა,1.0554089709762533e-05,1407.41
2023-10-30/2023-11-05,41.7137831,44.7177004,ბაგები,1.0554089709762533e-05,1600.0
2023-10-30/2023-11-05,41.7141366,44.7930041,ლუი პასტერის ქუჩა,1.0554089709762533e-05,1687.5
2023-10-30/2023-11-05,41.7141725,44.7596077,ნიკოლოზ ყიფშიძის ქუჩა,0.00030606860158311345,2068.97
2023-10-30/2023-11-05,41.7144175,44.7436858,გივი სვანიძის ქუჩა,3.16622691292876e-05,1418.84
2023-10-30/2023-11-05,41.7144838,44.7664163,სიმონ ჩიქოვანის ქუჩა,5.277044854881267e-05,1888.89
2023-10-30/2023-11-05,41.7147524,44.8031729,პორპილე ჩანჩიბაძის ქუჩა,3.16622691292876e-05,731.71
2023-10-30/2023-11-05,41.7152447,44.7574165,ვლადიმერ გაბაშვილის ქუჩა,5.277044854881267e-05,1677.42
2023-10-30/2023-11-05,41.7154774,44.7735545,სულხან ნასიძის ქუჩა,1.0554089709762533e-05,1388.89
2023-10-30/2023-11-05,41.7156823,44.7945388,კარგარეთელის ქუჩა,1.0554089709762533e-05,1636.36
2023-10-30/2023-11-05,41.71573395,44.72558560003113,თბილისის ივანე ჯავახიშვილის სახელობის სახელმწიფო უნივერსიტეტი,2.1108179419525066e-05,1364.815
2023-10-30/2023-11-05,41.7158303,44.8047912,გროზნოს ქუჩა,2.1108179419525066e-05,1414.78
2023-10-30/2023-11-05,41.7162486,44.774766,პლატონ იოსელიანის ქუჩა,8.443271767810026e-05,1464.2849999999999
2023-10-30/2023-11-05,41.7172719,44.80223,გიორგი ჩიტაიას ქუჩა,2.1108179419525066e-05,1421.05
2023-10-30/2023-11-05,41.7181022,44.7807554,ბერბუკის ქუჩა,0.00010554089709762533,1919.565
2023-10-30/2023-11-05,41.7181101,44.7833032,მერაბ ალექსიძის III შეს.,0.00014775725593667546,1625.0
2023-10-30/2023-11-05,41.7181461,44.774755,პანკისის ქუჩა,1.0554089709762533e-05,1654.41
2023-10-30/2023-11-05,41.7185053,44.7696734,ზაზა ფანასკერტელ-ციციშვილის ქუჩა (Zaza Panaskerteli-Tsitsishvili St),0.00010554089709762533,1240.385
2023-10-30/2023-11-05,41.7186244,44.7805834,პავლე ასლანიდის ქუჩა,2.1108179419525066e-05,1306.685
2023-10-30/2023-11-05,41.7191232,44.7370577,უნივერსიტეტის I შესახვევი,0.00017941952506596306,1960.0
2023-10-30/2023-11-05,41.7191946,44.7803645,ბიძინა კვერნაძის ქუჩა,6.33245382585752e-05,1822.465
2023-10-30/2023-11-05,41.7195641,44.7590348,ბახტრიონის ქუჩა,0.00016886543535620053,1287.02
2023-10-30/2023-11-05,41.7199161,44.7402767,ოთარ ლორთქიფანიძის ქუჩა,1.0554089709762533e-05,1330.0
2023-10-30/2023-11-05,41.7199364,44.7956526,ეგნატე ნინოშვილის ქუჩა,2.1108179419525066e-05,1252.04
2023-10-30/2023-11-05,41.7200371,44.7164636,ანა პოლიტკოვსკაიას ქუჩა,0.0014670184696569922,1684.93
2023-10-30/2023-11-05,41.7200891,44.7179865,პეტრე ქავთარაძის ქუჩა,0.0005171503957783641,1697.67
2023-10-30/2023-11-05,41.720101,44.7981016,ნ. გოგოლის ქუჩა,1.0554089709762533e-05,1324.5
2023-10-30/2023-11-05,41.720146,44.704685,Წმინდა მოწამე ვასილისკოს ქუჩა,2.1108179419525066e-05,1555.0549999999998
2023-10-30/2023-11-05,41.7204157,44.779444,გიორგი მიროტაძის ქუჩა,7.387862796833773e-05,2108.7
2023-10-30/2023-11-05,41.7205863,44.7407698,ოთარ ლორთქიფანიძის ქუჩა,9.49868073878628e-05,1516.67
2023-10-30/2023-11-05,41.7208888,44.7879453,გიორგი ცაბაძის ქუჩა,1.0554089709762533e-05,1095.24
2023-10-30/2023-11-05,41.7213996,44.7510811,გივი კარტოზიას ქუჩა,8.443271767810026e-05,2177.3100000000004
2023-10-30/2023-11-05,41.7215552,44.720010833729745,ვაჟა-ფშაველას გამზირის VI კვარტალი,0.00011609498680738787,1339.29
2023-10-30/2023-11-05,41.7215727,44.752629,სულხან ცინცაძის ქუჩა,0.0004643799472295515,1736.84
2023-10-30/2023-11-05,41.7217508,44.7766462,იპოლიტე ხვიჩიას ქუჩა,3.16622691292876e-05,1408.45
2023-10-30/2023-11-05,41.7218377,44.82545963440259,ხუდადოვის ტყე,2.1108179419525066e-05,1096.025
2023-10-30/2023-11-05,41.721980099999996,44.72721061574005,ვაჟა-ფშაველას გამზირის მე-7 კვარტალი,0.00010554089709762533,1314.165
2023-10-30/2023-11-05,41.7223872,44.7177523,ლუის ყავა,1.0554089709762533e-05,1222.22
2023-10-30/2023-11-05,41.7223878,44.7299233,მარიჯანის ქუჩა,6.33245382585752e-05,1544.62
2023-10-30/2023-11-05,41.7224106,44.73957,მედეა ჩახავას ქუჩა,2.1108179419525066e-05,1579.17
2023-10-30/2023-11-05,41.7226435,44.7078673,ელიზბარ მინდელის ქუჩა,0.0004643799472295515,1820.0
2023-10-30/2023-11-05,41.72269685,44.75740613462273,საირმის გორა,0.00020052770448548813,1637.93
2023-10-30/2023-11-05,41.7227239,44.717604283222315,სოხუმის მოედანი,1.0554089709762533e-05,1156.25
2023-10-30/2023-11-05,41.7227454,44.7738292,ვახტანგ ჭაბუკიანის ქუჩა,2.1108179419525066e-05,2001.4099999999999
2023-10-30/2023-11-05,41.7228734,44.7328471,დავით თავხელიძის ქუჩა,2.1108179419525066e-05,1660.0
2023-10-30/2023-11-05,41.7229734,44.72773297409053,,2.1108179419525066e-05,1332.895
2023-10-30/2023-11-05,41.7229942,44.7438118,კალისტრატე ქუთათელაძის ქუჩა,0.00016886543535620053,1719.0500000000002
2023-10-30/2023-11-05,41.7232556,44.7559788,მიხეილ ბურძგლას ქუჩა,0.00020052770448548813,1785.71
2023-10-30/2023-11-05,41.7233163,44.7695265,დავით გამრეკელის ქუჩა,1.0554089709762533e-05,1250.0
2023-10-30/2023-11-05,41.7234752,44.7770519,მერაბ კოსტავას ქუჩა,0.00023218997361477574,1861.7
2023-10-30/2023-11-05,41.7236072,44.7689581,არჩილ ცაგარელის ქუჩა,4.221635883905013e-05,1677.5
2023-10-30/2023-11-05,41.7240613,44.7455804,მიხეილ თამარაშვილის ქუჩა,0.0004432717678100264,2250.0
2023-10-30/2023-11-05,41.724162,44.7311381,ვაჟა-ფშაველას გამზირის 2 კვარტალი,0.0002532981530343008,1451.3899999999999
2023-10-30/2023-11-05,41.724189800000005,44.753657252964,ვასო გოძიაშვილის სახელობის ბაღი,0.00011609498680738787,1232.88
2023-10-30/2023-11-05,41.7243479,44.7620268,ადამ მიცკევიჩის ქუჩა,0.00027440633245382585,1777.78
2023-10-30/2023-11-05,41.72440505,44.71985638612588,ვაჟა-ფშაველას გამზირის IV კვარტალი,1.0554089709762533e-05,1416.67
2023-10-30/2023-11-05,41.7244082,44.7168682,ზურაბ ანჯაფარიძის ქუჩა,0.000158311345646438,1833.33
2023-10-30/2023-11-05,41.724546,44.780376,ვახტანგ ბოჭორიშვილის ქუჩა,0.00020052770448548813,1261.26
2023-10-30/2023-11-05,41.724625,44.788096838234814,,1.0554089709762533e-05,1333.33
2023-10-30/2023-11-05,41.7246476,44.7224736,მიხეილ შავიშვილის ქუჩა,0.0001266490765171504,1920.455
2023-10-30/2023-11-05,41.7248087,44.7902055,სლავა მეტრეველის ქუჩა,2.1108179419525066e-05,1652.335
2023-10-30/2023-11-05,41.72481605,44.727991683359974,,1.0554089709762533e-05,1588.24
2023-10-30/2023-11-05,41.7250935,44.72669111999934,ვაჟა-ფშაველას გამზირის III კვარტალი,9.49868073878628e-05,1209.68
2023-10-30/2023-11-05,41.72515435,44.739016967152665,გელოვანის ბაღი,1.0554089709762533e-05,1320.0
2023-10-30/2023-11-05,41.7251604,44.7923119,ეგნატე და ვახტანგ ფიფიების ქუჩა,1.0554089709762533e-05,1572.33
2023-10-30/2023-11-05,41.7255555,44.73970231537403,,1.0554089709762533e-05,1196.58
2023-10-30/2023-11-05,41.7257647,44.73429918071663,ვაჟა-ფშაველას გამზირის II კვარტალი,6.33245382585752e-05,1424.47
2023-10-30/2023-11-05,41.7259247,44.8021605,მიხეილ მესხის I შესახვევი,6.33245382585752e-05,1153.125
2023-10-30/2023-11-05,41.7259583,44.8346207,მახათას აღმართის მე-2 ჩიხი,2.1108179419525066e-05,1071.43
2023-10-30/2023-11-05,41.7259982,44.7995217,ცოტნე დადიანის ქუჩა,1.0554089709762533e-05,3421.05
2023-10-30/2023-11-05,41.7260828,44.7696199,პეკინის გამზირი,0.00027440633245382585,1452.32
2023-10-30/2023-11-05,41.7263628,44.7225169,გიორგი შავგულიძის ქუჩა,2.1108179419525066e-05,1242.045
2023-10-30/2023-11-05,41.7264909,44.74177161824572,ვაჟა-ფშაველას გამზირის I კვარტალი,4.221635883905013e-05,1430.225
2023-10-30/2023-11-05,41.7265187,44.7393043,თ. ბუაჩიძის ქუჩა,1.0554089709762533e-05,1148.15
2023-10-30/2023-11-05,41.7265677,44.74991700285831,თბილისი გარდენსის გაყიდვების ოფისი,0.0002849604221635884,2845.85
2023-10-30/2023-11-05,41.7270196,44.7995778,ც.დადიანის,0.00043271767810026387,1344.0
2023-10-30/2023-11-05,41.7271321,44.7880765,დიდუბის რაიონი,2.1108179419525066e-05,1061.505
2023-10-30/2023-11-05,41.7271421,44.7281974,რევაზ მარგიანის ქუჩა,1.0554089709762533e-05,1244.44
2023-10-30/2023-11-05,41.7271507,44.7638147,ტაშკენტის ქუჩა,4.221635883905013e-05,1894.245
2023-10-30/2023-11-05,41.7276055,44.7903064,ფოთის ქუჩა,1.0554089709762533e-05,1695.12
2023-10-30/2023-11-05,41.7278031,44.7481782,სერგო ზაქარიაძის ქუჩა,2.1108179419525066e-05,1575.825
2023-10-30/2023-11-05,41.7279674,44.7875919,ქუთაისის ქუჩა,3.16622691292876e-05,975.0
2023-10-30/2023-11-05,41.728094,44.7840214,ზეზვა გაფრინდაულის ქუჩა,1.0554089709762533e-05,1106.67
2023-10-30/2023-11-05,41.728533,44.7408418,Mamia Gurieli street,3.16622691292876e-05,2200.0
2023-10-30/2023-11-05,41.72901014999999,44.72556184569022,,1.0554089709762533e-05,1476.01
2023-10-30/2023-11-05,41.7294117,44.7612078,ოთარ ჭილაძის ქუჩა,2.1108179419525066e-05,1615.38
2023-10-30/2023-11-05,41.7294692,44.7610362,გურამ ფანჯიკიძის ქუჩა,5.277044854881267e-05,1533.33
2023-10-30/2023-11-05,41.7297383,44.7679935,თინა იოსებიძის ქუჩა,2.1108179419525066e-05,1263.1799999999998
2023-10-30/2023-11-05,41.7297891,44.733313255012135,ნუცუბიძის პლატო 3 მ/რ,0.00010554089709762533,1170.21
2023-10-30/2023-11-05,41.7299464,44.7845384,რაჟდენ გვეტაძის ქუჩა,1.0554089709762533e-05,1153.85
2023-10-30/2023-11-05,41.7300787,44.743764,გაზაფხულის ქუჩა,4.221635883905013e-05,1955.39
2023-10-30/2023-11-05,41.7301979,44.758806,ბუდაპეშტის ქუჩა,4.221635883905013e-05,1376.645
2023-10-30/2023-11-05,41.7302181,44.7590432,იონა ვაკელის ქუჩა,2.1108179419525066e-05,1625.0
2023-10-30/2023-11-05,41.7303293,44.8338217,ვ. კანდელაკის ქუჩა,4.221635883905013e-05,1262.82
2023-10-30/2023-11-05,41.7306332,44.7339571,რამაზ ჩხიკვაძის ქუჩა,1.0554089709762533e-05,1439.02
2023-10-30/2023-11-05,41.7306873,44.7521294,ვ. ჩიქოვანის ქუჩა,0.0001266490765171504,1356.41
2023-10-30/2023-11-05,41.7307083,44.7440595,კამანის ქუჩა,2.1108179419525066e-05,1969.4650000000001
2023-10-30/2023-11-05,41.7307913,44.7894652,თევდორე მღვდლის ქუჩა,2.1108179419525066e-05,1684.7849999999999
2023-10-30/2023-11-05,41.7311335,44.7843164,არჩილ კერესელიძის ქუჩა,1.0554089709762533e-05,1307.69
2023-10-30/2023-11-05,41.7311651,44.7693824,ჟ. შარტავას ქუჩა,0.0005488126649076517,1541.175
2023-10-30/2023-11-05,41.7312838,44.767649205620344,ზურაბ ჟვანიას მოედანი,0.0003799472295514512,1809.52
2023-10-30/2023-11-05,41.7313315,44.7630581,ოთარ ონიაშვილის ქუჩა,8.443271767810026e-05,1928.57
2023-10-30/2023-11-05,41.73181125,44.72308797415835,,1.0554089709762533e-05,1202.13
2023-10-30/2023-11-05,41.7318858,44.7864819,პირიდონ კედიას ქუჩა,4.221635883905013e-05,1440.97
2023-10-30/2023-11-05,41.7319782,44.734453,პაატა დათუაშვილის ქუჩა,9.49868073878628e-05,1476.19
2023-10-30/2023-11-05,41.7321081,44.7232984,ნუცუბიძის პლატო 5 მკრ,4.221635883905013e-05,1365.92
2023-10-30/2023-11-05,41.732147,44.7448497,თამაზ ნადარეიშვილის ქუჩა,3.16622691292876e-05,1927.71
2023-10-30/2023-11-05,41.7321563,44.7352948,ელგუჯა ამაშუკელის ქუჩა,0.0003482849604221636,1622.64
2023-10-30/2023-11-05,41.7328022,44.9065727,Tbilisi Railway Bypass,0.0002849604221635884,1066.67
2023-10-30/2023-11-05,41.73289195,44.77285013362726,გოთუას სახელობის პარკი,7.387862796833773e-05,1406.25
2023-10-30/2023-11-05,41.73292735,44.7289248,Nutsubidze Plato 4 M/R 9B,0.00027440633245382585,1441.05
2023-10-30/2023-11-05,41.7329503,44.725785266901006,ნუცუბიძის ფერდობი,0.000633245382585752,1395.105
2023-10-30/2023-11-05,41.7333939,44.764809,ი. ნონეშვილის ქუჩა,9.49868073878628e-05,1095.24
2023-10-30/2023-11-05,41.7335765,44.7812967,ხოშარაულის ქუჩა,0.00016886543535620053,1180.605
2023-10-30/2023-11-05,41.7336241,44.7669944,სოფრომ მგალობლიშვილის ქუჩა,3.16622691292876e-05,1450.0
2023-10-30/2023-11-05,41.7340348,44.7695147,ი. გაგარინის IV შესახვევი,0.0002216358839050132,1400.0
2023-10-30/2023-11-05,41.7341422,44.7729202,პრეზიდენტ ჰეიდარ ალიევის სანაპირო,2.1108179419525066e-05,1978.475
2023-10-30/2023-11-05,41.7343223,44.7600391,ცხინვალის ქუჩა,1.0554089709762533e-05,1197.67
2023-10-30/2023-11-05,41.7345773,44.7339774,კონსტანტინე კაპანელის შესახვევი,2.1108179419525066e-05,1300.0
2023-10-30/2023-11-05,41.7346366,44.7250532,Tbilisi Kindergarten #183,3.16622691292876e-05,769.23
2023-10-30/2023-11-05,41.7347047,44.7698309,გაბრიელ ისაკაძის ქუჩა,1.0554089709762533e-05,1529.41
2023-10-30/2023-11-05,41.7348409,44.7375165,ანდრო ჭილაიას ქუჩა,1.0554089709762533e-05,1597.94
2023-10-30/2023-11-05,41.7350909,44.781084487821076,,1.0554089709762533e-05,1386.14
2023-10-30/2023-11-05,41.7351889,44.7335158,ლ. ასათიანის ქუჩა,5.277044854881267e-05,1809.52
2023-10-30/2023-11-05,41.7355592,44.7480266,ბერიტაშვილის ქუჩა,3.16622691292876e-05,1201.3
2023-10-30/2023-11-05,41.7357051,44.7379701,სერგი დანელიას ქუჩა,2.1108179419525066e-05,1928.5700000000002
2023-10-30/2023-11-05,41.7359604,44.767978,იოსებ იმედაშვილის ქუჩა,1.0554089709762533e-05,1341.46
2023-10-30/2023-11-05,41.7362009,44.7651672,ზემო ვეძისის ქუჩა,2.1108179419525066e-05,1444.255
2023-10-30/2023-11-05,41.7365163,44.7947961,გიორგი ჭყონდიდელის ქუჩა,0.0003271767810026385,1300.0
2023-10-30/2023-11-05,41.7368589,44.7777789,რაფიელ აგლაძის ქუჩა,5.277044854881267e-05,1341.46
2023-10-30/2023-11-05,41.737192,44.7966288,გ. სააკაძის ქუჩა,2.1108179419525066e-05,1593.75
2023-10-30/2023-11-05,41.7384084,44.71525412080008,ავთო ვარაზის ქუჩა,0.0003271767810026385,1558.44
2023-10-30/2023-11-05,41.7386198,44.7788163,სტანისლავსკის ქუჩა,2.1108179419525066e-05,1513.155
2023-10-30/2023-11-05,41.7390529,44.7736615,გუდაუთის ქუჩა,1.0554089709762533e-05,833.33
2023-10-30/2023-11-05,41.7399325,44.7706916,აკაკი ბაქრაძის ქუჩა,5.277044854881267e-05,1236.11
2023-10-30/2023-11-05,41.7400503,44.7994607,ჭიჭიკო ბენდელიანის ქუჩაზე,1.0554089709762533e-05,1319.59
2023-10-30/2023-11-05,41.7409065,44.7496994,ცაცხვების 7 შესახვევი,1.0554089709762533e-05,1850.0
2023-10-30/2023-11-05,41.7409197,44.7700047,მარშალ გელოვანის გამზირი,0.0001266490765171504,1456.54
2023-10-30/2023-11-05,41.7420916,44.7858581,ზესტაფონის ქუჩა,1.0554089709762533e-05,1069.23
2023-10-30/2023-11-05,41.7431956,44.762363,მუხრან მაჭავარიანის ქუჩა,0.00027440633245382585,1477.87
2023-10-30/2023-11-05,41.743903849999995,44.73460484132602,ლისის ტბა,0.00024274406332453825,1400.0
2023-10-30/2023-11-05,41.7441756,44.7874423,ვახტანგ ნინუას ქუჩა,9.49868073878628e-05,1114.75
2023-10-30/2023-11-05,41.74434,44.7742761,წყალტუბოს ქუჩა,8.443271767810026e-05,1316.3249999999998
2023-10-30/2023-11-05,41.7497435,44.7999571,ეკა ბეჟანიშვილის ქუჩა,1.0554089709762533e-05,1120.69
2023-10-30/2023-11-05,41.7500557,44.7834898,მექანიზაციის ქუჩა,1.0554089709762533e-05,916.67
2023-10-30/2023-11-05,41.750907850000004,44.762819479302635,მე-7 ა კორპუსი,1.0554089709762533e-05,1450.0
2023-10-30/2023-11-05,41.7514276,44.7625752,ვალენტინ Თოფურიძის შესახვევი,6.33245382585752e-05,1385.185
2023-10-30/2023-11-05,41.7526098,44.78907518455388,,1.0554089709762533e-05,1287.43
2023-10-30/2023-11-05,41.7538827,44.7753235,Trans Argo Tbilisi,1.0554089709762533e-05,1690.0
2023-10-30/2023-11-05,41.7540023,44.7591158,არზაყან ემუხვარის,4.221635883905013e-05,1083.7549999999999
2023-10-30/2023-11-05,41.7550874,44.7934339,გვაზაურის ქუჩა,1.0554089709762533e-05,1043.01
2023-10-30/2023-11-05,41.7553103,44.7684355,პეტრე სარაჯიშვილის ქუჩა (Petre Sarajishvili St.),3.16622691292876e-05,950.0
2023-10-30/2023-11-05,41.7554822,44.8042039678946,ღრმაღელის სასაფლაო,2.1108179419525066e-05,1075.295
2023-10-30/2023-11-05,41.7580827,44.7709289897397,დიღმის მასივი I კვარტალი,4.221635883905013e-05,1130.355
2023-10-30/2023-11-05,41.75837565,44.7767132630648,დიღმის მასივი III კვარტალი,9.49868073878628e-05,833.33
2023-10-30/2023-11-05,41.7592702,44.8040275,მუხრანის ქუჩა,1.0554089709762533e-05,825.0
2023-10-30/2023-11-05,41.759651500000004,44.76962776990841,,1.0554089709762533e-05,1263.16
2023-10-30/2023-11-05,41.7604995,44.7923475,ჩარგლის ქუჩა,0.00014775725593667546,1381.8200000000002
2023-10-30/2023-11-05,41.7612955,44.7946545,ლიახვის ქუჩა,1.0554089709762533e-05,1100.0
2023-10-30/2023-11-05,41.7622471,44.7863707,ერწოს ქუჩა,5.277044854881267e-05,1185.71
2023-10-30/2023-11-05,41.7627761,44.7749654,ევგენი მიქელაძის ქუჩა,1.0554089709762533e-05,1611.11
2023-10-30/2023-11-05,41.762944,44.7748652,დიღმის მასივი,1.0554089709762533e-05,1608.7
2023-10-30/2023-11-05,41.763008,44.7691666,Reikartz Horizont Tbilisi,9.49868073878628e-05,1208.33
2023-10-30/2023-11-05,41.7641407,44.77761429741787,დიღმის მასივი IV კვარტალი,5.277044854881267e-05,961.17
2023-10-30/2023-11-05,41.7643997,44.7773783,მოსე გოგიბერიძის ქუჩა,1.0554089709762533e-05,1280.7
2023-10-30/2023-11-05,41.7646015,44.8761119,Tbilisi Railway Bypass,1.0554089709762533e-05,901.64
2023-10-30/2023-11-05,41.7646239,44.7886111,სამტრედიის ქუჩა,2.1108179419525066e-05,1212.225
2023-10-30/2023-11-05,41.7646319,44.7791712,ლევან ცისკარიშვილის ქუჩა,2.1108179419525066e-05,935.7149999999999
2023-10-30/2023-11-05,41.7651756,44.7971011,მიხეილ გლინკას ქუჩა,3.16622691292876e-05,1232.6
2023-10-30/2023-11-05,41.7655647,44.7743919,თბილისი ენერჯი,1.0554089709762533e-05,1476.92
2023-10-30/2023-11-05,41.7664905,44.790376,ქსნის ქუჩა,2.1108179419525066e-05,954.25
2023-10-30/2023-11-05,41.7672372,44.7624451,გიორგი ბრწყინვალეს ქუჩა,0.00017941952506596306,1211.54
2023-10-30/2023-11-05,41.7676434,44.7384834,მ. ჭიაურელის ქუჩა,1.0554089709762533e-05,2299.07
2023-10-30/2023-11-05,41.7709759,44.769596,დავით რონდელის ქუჩა,2.1108179419525066e-05,857.9549999999999
2023-10-30/2023-11-05,41.7710379,44.7553338,ავთანდილის ქუჩა,0.0001266490765171504,1276.12
2023-10-30/2023-11-05,41.7725681,44.7663342,ლუარსაბ ანდრონიკაშვილის ქუჩა,2.1108179419525066e-05,602.115
2023-10-30/2023-11-05,41.77302415,44.740498390027646,,4.221635883905013e-05,1285.54
2023-10-30/2023-11-05,41.7731729,44.7800877,ჭიაურელის ქუჩა,6.33245382585752e-05,2429.91
2023-10-30/2023-11-05,41.7734596,44.7682263,ქალაქ თბილისის პროკურატურა,3.16622691292876e-05,1397.06
2023-10-30/2023-11-05,41.7757252,44.7776225,კონსტანტინე ჩაჩავას ქუჩა,4.221635883905013e-05,1809.21
2023-10-30/2023-11-05,41.7759049,44.8293215,ავშნის ქუჩა,1.0554089709762533e-05,933.33
2023-10-30/2023-11-05,41.7773673,44.7424019,ალექსანდრე ყაზბეგის ქუჩა,0.0002638522427440633,1400.0
2023-10-30/2023-11-05,41.7802568,44.7727131,ნოდარ ბოხუას ქუჩა,0.00021108179419525067,1205.905
2023-10-30/2023-11-05,41.7825121,44.8008368,ანაპის 414-ე დივიზიის ქუჩა,0.00013720316622691292,1187.27
2023-10-30/2023-11-05,41.782601,44.7592602,თინათინის ქუჩა,4.221635883905013e-05,1071.43
2023-10-30/2023-11-05,41.7826207,44.75237,ფატმანის ქუჩა,0.0002216358839050132,1025.64
2023-10-30/2023-11-05,41.7834317,44.7553694,რამაზის ქუჩა,1.0554089709762533e-05,1190.91
2023-10-30/2023-11-05,41.7837919,44.7664386,ფარსადანის ქუჩა,4.221635883905013e-05,1219.78
2023-10-30/2023-11-05,41.7838853,44.7305814,დიღომი,7.387862796833773e-05,870.57
2023-10-30/2023-11-05,41.7842021,44.7523462,ტარიელის ქუჩა,5.277044854881267e-05,1400.0
2023-10-30/2023-11-05,41.7849279,44.7642937,ასმათის ქუჩა,0.000158311345646438,1129.87
2023-10-30/2023-11-05,41.7850391,44.7271806,ბარონ დე ბაის ქუჩა,1.0554089709762533e-05,1600.0
2023-10-30/2023-11-05,41.7851211,44.7392391,ჰაინრიხ კლაპროთის ქუჩა,4.221635883905013e-05,1229.165
2023-10-30/2023-11-05,41.7852421,44.7654023,მელიქ-სურხავის ქუჩა,3.16622691292876e-05,1166.67
2023-10-30/2023-11-05,41.7857949,44.7579682,დავარის ქუჩა,0.00024274406332453825,1276.6
2023-10-30/2023-11-05,41.7858808,44.7397034,კრისტიან სტივენის ქუჩა,1.0554089709762533e-05,1148.65
2023-10-30/2023-11-05,41.7862353,44.7642492,როსტევანის ქუჩა,6.33245382585752e-05,1224.14
2023-10-30/2023-11-05,41.7864577,44.77967,აკაკი ბელიაშვილის ქუჩა,0.00013720316622691292,1270.59
2023-10-30/2023-11-05,41.7866314,44.740186,არქანჯელო ლამბერტის ქუჩა,3.16622691292876e-05,1203.7
2023-10-30/2023-11-05,41.7867757,44.7569113,ვეფხისტყაოსნის ქუჩა,0.00017941952506596306,1226.19
2023-10-30/2023-11-05,41.7868553,44.8172492,ბრონშტეინის ქუჩა,1.0554089709762533e-05,1183.1
2023-10-30/2023-11-05,41.7869166,44.7445743,სტრაბონის ქუჩა,0.00021108179419525067,931.03
2023-10-30/2023-11-05,41.7874836,44.7630328,მეფე მირიანის ქუჩა,0.0010131926121372031,1177.645
2023-10-30/2023-11-05,41.7875197,44.7652814,გიორგი ბალანჩინის ქუჩა,1.0554089709762533e-05,1186.05
2023-10-30/2023-11-05,41.787941,44.8003256,დ. სარაჯიშვილის გამზირი,8.443271767810026e-05,1190.7649999999999
2023-10-30/2023-11-05,41.78799885,44.7632761964581,ცამეტი ასურელი მამის სახელობის ტაძარი,1.0554089709762533e-05,1194.03
2023-10-30/2023-11-05,41.7883178,44.8182232,რამაზ შენგელიას ქუჩა,7.387862796833773e-05,1162.5
2023-10-30/2023-11-05,41.7891173,44.8109021,თენგიზ შეშელიძის ქუჩა,3.16622691292876e-05,1300.0
2023-10-30/2023-11-05,41.790867,44.8182214,გობრონიძის ქუჩა (Gobronidze Street),0.00013720316622691292,1275.0
2023-10-30/2023-11-05,41.7910272,44.7308818,მარკო პოლოს ქუჩა,1.0554089709762533e-05,1000.0
2023-10-30/2023-11-05,41.7910558,44.8149983,ახმეტელის თეატრი,2.1108179419525066e-05,1216.665
2023-10-30/2023-11-05,41.79163,44.8164333,ილია ვეკუას ქუჩა,2.1108179419525066e-05,1237.255
2023-10-30/2023-11-05,41.7924757,44.739673,არჩილ მეფის ქუჩა,0.0002849604221635884,1126.76
2023-10-30/2023-11-05,41.7925119,44.7593139,იოანე პეტრიწის ქუჩა,7.387862796833773e-05,1136.36
2023-10-30/2023-11-05,41.793374,44.8121398,აკაკი ვასაძის ქუჩა,4.221635883905013e-05,1333.33
2023-10-30/2023-11-05,41.7938779,44.7421584,King Bagrat III St,8.443271767810026e-05,780.25
2023-10-30/2023-11-05,41.7938884,44.755381,პეტრე იბერის ქუჩა,0.00039050131926121373,1150.0
2023-10-30/2023-11-05,41.7942909,44.7837473,ბობ უოლშის II შესახვევი,0.00033773087071240106,1020.77
2023-10-30/2023-11-05,41.7964166,44.7520138,დემეტრე თავდადებულის ქუჩა,0.0003271767810026385,922.22
2023-10-30/2023-11-05,41.7970907,44.8026263,მიხეილ იპოლიტოვ-ივანოვის ქუჩა,2.1108179419525066e-05,1272.885
2023-10-30/2023-11-05,41.8004584,44.825454,ნიკო კეცხოველის ქუჩა,1.0554089709762533e-05,951.61
2023-10-30/2023-11-05,41.800724,44.8554507,აკაკი ხორავას ქუჩა,1.0554089709762533e-05,2314.81
2023-10-30/2023-11-05,41.8009587,44.7479203,ასი ათასი მოწამის ქუჩა,0.00013720316622691292,1327.59
2023-10-30/2023-11-05,41.8037365,44.8166869,ა. რაზმაძის ქუჩა,2.1108179419525066e-05,1072.5
2023-10-30/2023-11-05,41.8049264,44.8216417,მიხეილ ხერგიანის ქუჩა,3.16622691292876e-05,1220.0
2023-10-30/2023-11-05,41.8069528,44.8330845,ხიზანიშვილის ქ. (Khizanishvili Str.),5.277044854881267e-05,1369.05
2023-10-30/2023-11-05,41.8107667,44.7763943,დიღომი 8,1.0554089709762533e-05,1300.0
2023-10-30/2023-11-05,41.8117104,44.7749172,მ. თარხნიშვილის ქუჩა,1.0554089709762533e-05,1671.62
2023-10-30/2023-11-05,41.8119883,44.7775873,ა. გელოვანის 1-ლი შეს.,1.0554089709762533e-05,1661.73
2023-10-30/2023-11-05,41.816446299999996,44.79649933840503,ლიბანის სკვერი,1.0554089709762533e-05,1092.04
2023-10-30/2023-11-05,41.8196405,44.7765225,დიღომი 9,1.0554089709762533e-05,1169.81
2023-10-30/2023-11-05,41.8214958,44.8265009,ქერჩის ქუჩა,0.0003482849604221636,1230.77
2023-10-30/2023-11-05,41.8225231,44.7844664,წმინდა ქეთევან წამებულის სახელობის ეკლესია,0.00016886543535620053,1604.165
2023-10-30/2023-11-05,41.8262639,44.8057542,ნოდარ დუმბაძის ქუჩა,5.277044854881267e-05,1000.0
2023-10-30/2023-11-05,41.839807,43.384652,Tbilisi,0.0009076517150395779,2583.1000000000004
2023-10-30/2023-11-05,42.512148,41.8691857,Metro Bus a Tblilisi,5.277044854881267e-05,2727.27
2023-11-06/2023-11-12,41.6284342,44.9222642,რუსთავის გზატკეცილი,1.0554089709762533e-05,1025.0
2023-11-06/2023-11-12,41.6305462,44.91769801455217,ფონიჭალა,1.0554089709762533e-05,900.0
2023-11-06/2023-11-12,41.6474869,44.7602777,გრ. რობაქიძის II შესახვევი,2.1108179419525066e-05,1008.9849999999999
2023-11-06/2023-11-12,41.6477717,45.5540756,ბადიაურის გამგეობა (Badiauri Town Hall),1.0554089709762533e-05,1250.0
2023-11-06/2023-11-12,41.6530496,44.7553301,ვახტანგ გორგასლის ქუჩა,0.00040105540897097627,1504.42
2023-11-06/2023-11-12,41.657316,44.872239390029385,კრწანისის რაიონი,0.00024274406332453825,1793.1
2023-11-06/2023-11-12,41.6668639,44.8891798,ქინძმარაულის I შესახვევი,6.33245382585752e-05,1066.67
2023-11-06/2023-11-12,41.6671043,44.8930646,ოცხელის ქუჩა,2.1108179419525066e-05,946.31
2023-11-06/2023-11-12,41.66818275,44.85258474812308,ორთაჭალის სასაფლაო,4.221635883905013e-05,1346.155
2023-11-06/2023-11-12,41.6696516,44.9135732,Gumathesi Street,1.0554089709762533e-05,916.67
2023-11-06/2023-11-12,41.6721906,44.8773537,ბერი გაბრიელ სალოსის გამზირი,0.0002849604221635884,1075.0
2023-11-06/2023-11-12,41.6732122,44.87276813300214,,3.16622691292876e-05,833.33
2023-11-06/2023-11-12,41.6734403,44.9115247,ნავთლუღის II დასახლების VII ქუჩა - I შეს.,1.0554089709762533e-05,680.98
2023-11-06/2023-11-12,41.6735884,44.8523018,შ. ნადირაშვილის ქუჩა,0.00016886543535620053,1109.84
2023-11-06/2023-11-12,41.6754651,44.8773492,მოსკოვის გამზირი,0.0006015831134564644,1015.38
2023-11-06/2023-11-12,41.675465700000004,44.829620476266534,დიმიტრი გულუას მოედანი,1.0554089709762533e-05,1296.7
2023-11-06/2023-11-12,41.6760677,44.8350528,დიმიტრი გულიას ქუჩა,3.16622691292876e-05,1385.54
2023-11-06/2023-11-12,41.67659915,44.85307476129846,მაიორ შალვა დოლიძის სახელობის სკვერი,0.00011609498680738787,1675.68
2023-11-06/2023-11-12,41.67671025,44.91284284491345,,2.1108179419525066e-05,635.255
2023-11-06/2023-11-12,41.6770168,44.8388703,რიჩარდ ჰოლბრუკის ქუჩა,0.00013720316622691292,1507.94
2023-11-06/2023-11-12,41.6770823,44.7794082,ტ. ტაბიძის 1-ლი შესახვევი,3.16622691292876e-05,1547.3
2023-11-06/2023-11-12,41.6772915,44.8826722,გრიგოლ ლორთქიფანიძის ქუჩა,1.0554089709762533e-05,883.33
2023-11-06/2023-11-12,41.6775804,44.8498954,დოდაშვილის ქუჩა,1.0554089709762533e-05,1200.0
2023-11-06/2023-11-12,41.6777055,44.8417172,ჩქალოვის ქუჩა,1.0554089709762533e-05,25.0
2023-11-06/2023-11-12,41.6801824,44.833591239653295,,1.0554089709762533e-05,728.81
2023-11-06/2023-11-12,41.6817295,44.8425369,ვ. ლობჟანიძის ქუჩა,1.0554089709762533e-05,1065.22
2023-11-06/2023-11-12,41.68173135,44.82019138848683,,3.16622691292876e-05,1444.44
2023-11-06/2023-11-12,41.6820281,44.82412553155259,ჟანი კალანდაძის პარკი,6.33245382585752e-05,1186.845
2023-11-06/2023-11-12,41.6823956,44.8400103,ნავთლუღის ქუჩა,0.00020052770448548813,1546.88
2023-11-06/2023-11-12,41.6833116,44.8706053,ჯავახეთის ქუჩა,4.221635883905013e-05,1152.0749999999998
2023-11-06/2023-11-12,41.6843626,44.7838358,მარო მაყაშვილის აღმართი,1.0554089709762533e-05,1813.95
2023-11-06/2023-11-12,41.6843764,44.8501263,აბუსერიძე ტბელის ქუჩა,1.0554089709762533e-05,1368.42
2023-11-06/2023-11-12,41.6860941,44.8883092,შუამთის ქუჩა,0.00010554089709762533,1066.67
2023-11-06/2023-11-12,41.686574,44.8804163049863,მესამე მასივი,3.16622691292876e-05,930.77
2023-11-06/2023-11-12,41.6866296,44.8158428,გრიშაშვილის ქუჩა,2.1108179419525066e-05,1308.335
2023-11-06/2023-11-12,41.6867619,44.8268581,ბოჭორმის ქუჩა,4.221635883905013e-05,1948.1599999999999
2023-11-06/2023-11-12,41.6868415,44.7780929,თაყაიშვილის,2.1108179419525066e-05,1232.145
2023-11-06/2023-11-12,41.6871874,44.8333234,ლეხ კაჩინსკის ქუჩა,3.16622691292876e-05,1555.56
2023-11-06/2023-11-12,41.6872822,44.7719586,დავით გურამიშვილის ქუჩა,0.0005804749340369394,1224.49
2023-11-06/2023-11-12,41.6876703,44.8237587,თელავის ქუჩა,1.0554089709762533e-05,1544.72
2023-11-06/2023-11-12,41.6886257,44.9786133,Tbilisi Railway Bypass,4.221635883905013e-05,1092.22
2023-11-06/2023-11-12,41.6887246,44.879234,კალოუბნის ქუჩა,2.1108179419525066e-05,835.2
2023-11-06/2023-11-12,41.6888314,44.8204204,ფარნავაზ I,0.00033773087071240106,1188.9650000000001
2023-11-06/2023-11-12,41.6888413,44.8083179,ორპირის ჩიხი,1.0554089709762533e-05,2705.95
2023-11-06/2023-11-12,41.68887245,44.80457257468296,ბეთლემის ეკლესია,1.0554089709762533e-05,3636.36
2023-11-06/2023-11-12,41.6890089,44.7727506,ბესიკის ქუჩა,1.0554089709762533e-05,1916.67
2023-11-06/2023-11-12,41.6891292,44.8356499,ძევერის ქუჩა,1.0554089709762533e-05,794.87
2023-11-06/2023-11-12,41.68943,44.8595197,შალვა აზმაიფარაშვილის ქუჩა,1.0554089709762533e-05,1295.24
2023-11-06/2023-11-12,41.6895389,44.8565577,დიმიტრი უზნაძის ქუჩა,2.1108179419525066e-05,1592.725
2023-11-06/2023-11-12,41.6897908,44.86795670709502,,3.16622691292876e-05,1270.83
2023-11-06/2023-11-12,41.6900752,44.791722,ოქროყანის ქუჩა,1.0554089709762533e-05,1649.97
2023-11-06/2023-11-12,41.6901124,44.8084232,კოტე აფხაზის ქუჩა,1.0554089709762533e-05,1641.79
2023-11-06/2023-11-12,41.6902213,44.7944809,ამაღლების შეს.,6.33245382585752e-05,2181.25
2023-11-06/2023-11-12,41.6904488,44.8869191,გიორგი აბაშვილის ქუჩა,9.49868073878628e-05,975.61
2023-11-06/2023-11-12,41.6906301,44.7972986,პაოლო იაშვილის ქუჩა,2.1108179419525066e-05,2107.795
2023-11-06/2023-11-12,41.690639000000004,44.69479108152969,წყნეთის ტყეპარკი,5.277044854881267e-05,1259.26
2023-11-06/2023-11-12,41.690705,44.8045747,გიორგი ჯიბლაძის ქუჩა,1.0554089709762533e-05,2575.0
2023-11-06/2023-11-12,41.6909142,44.8257614,ახმეტის ქუჩა,1.0554089709762533e-05,1458.82
2023-11-06/2023-11-12,41.691037,44.804668,აბო თბილელის ქუჩა,1.0554089709762533e-05,3000.0
2023-11-06/2023-11-12,41.6915019,44.8341209,ჯორჯ ბუშის ქუჩა,2.1108179419525066e-05,1235.725
2023-11-06/2023-11-12,41.6915296,44.8038034,გია აბესაძის II ჩიხი,1.0554089709762533e-05,1489.94
2023-11-06/2023-11-12,41.6919015,44.8043121,ქართულ-ებრაული 26 საუკუნოვანი მეგობრობის საზოგადოება,1.0554089709762533e-05,1211.27
2023-11-06/2023-11-12,41.6922896,44.8624694,ალექსანდრე წულუკიძის ქუჩა,6.33245382585752e-05,1284.725
2023-11-06/2023-11-12,41.693202,44.8580962,დავით კვაჭანტირაძის ქუჩა,2.1108179419525066e-05,1052.72
2023-11-06/2023-11-12,41.6934591,44.8014495,თბილისი,0.00016886543535620053,1338.465
2023-11-06/2023-11-12,41.6936215,44.7945991,დანიელ ჭონქაძის ქუჩა,1.0554089709762533e-05,1992.75
2023-11-06/2023-11-12,41.6947899,44.8159154,კონსტანტინე ერისთავის ქუჩა,0.00011609498680738787,1733.33
2023-11-06/2023-11-12,41.6948246,44.794709,შიო ჩიტაძის ქუჩა,2.1108179419525066e-05,2472.2200000000003
2023-11-06/2023-11-12,41.6952649,44.8195904,მარტყოფის ქუჩა,2.1108179419525066e-05,895.165
2023-11-06/2023-11-12,41.6954171,44.7959158,კლიკეს ხინკალი,1.0554089709762533e-05,1321.84
2023-11-06/2023-11-12,41.6957586,44.7969814,9 აპრილის ქუჩა,1.0554089709762533e-05,3026.32
2023-11-06/2023-11-12,41.69588645,44.78900241377039,მთაწმინდის პანთეონი,4.221635883905013e-05,2459.77
2023-11-06/2023-11-12,41.6960185,44.8824055,რომანოზ ხომლელის ქუჩა,3.16622691292876e-05,1122.64
2023-11-06/2023-11-12,41.696326400000004,44.79373096919663,სულხან საბას ბაღი,2.1108179419525066e-05,2205.56
2023-11-06/2023-11-12,41.6965575,44.7963111,პავლე ინგოროყვას შესახევი,4.221635883905013e-05,2712.77
2023-11-06/2023-11-12,41.6966766,44.7954762,ვახტანგ კოტეტიშვილის ქუჩა,1.0554089709762533e-05,1641.79
2023-11-06/2023-11-12,41.696996,44.8141498,ერევნის ქუჩა,1.0554089709762533e-05,1388.89
2023-11-06/2023-11-12,41.6970012,44.8119602,B&B Old Tbilisi,1.0554089709762533e-05,1600.0
2023-11-06/2023-11-12,41.6970028,44.8213852,საინგილოს ქუჩა,2.1108179419525066e-05,1096.77
2023-11-06/2023-11-12,41.6974238,44.7936784,სერგო ფარაჯანოვის ქუჩა,1.0554089709762533e-05,1395.83
2023-11-06/2023-11-12,41.697489,44.7955152,მიხაი ზიჩის ქუჩა,7.387862796833773e-05,2205.88
2023-11-06/2023-11-12,41.697589,44.7921677,ვეძინის ქუჩა,2.1108179419525066e-05,1701.065
2023-11-06/2023-11-12,41.6976077,44.7965839,ტარას შევჩენკოს ქუჩა,1.0554089709762533e-05,2584.62
2023-11-06/2023-11-12,41.6979141,44.8129668,სამრეკლოს II შესახვევი,1.0554089709762533e-05,719.51
2023-11-06/2023-11-12,41.6982896,44.7933175,ზაალ ქიქოძის ქუჩა,1.0554089709762533e-05,1333.33
2023-11-06/2023-11-12,41.6983438,44.8010491,რევაზ თაბუკაშვილის ქუჩა,1.0554089709762533e-05,1891.89
2023-11-06/2023-11-12,41.6988754,44.8520951,შალვა მშველიძის ქუჩა,1.0554089709762533e-05,965.15
2023-11-06/2023-11-12,41.699018,44.8026224,ათონელის ქუჩა,2.1108179419525066e-05,2006.345
2023-11-06/2023-11-12,41.699344,44.8050557,სანაპიროს ქუჩა,1.0554089709762533e-05,1328.67
2023-11-06/2023-11-12,41.6994363,44.8528847,შანდორ პეტეფის ქუჩა,5.277044854881267e-05,733.33
2023-11-06/2023-11-12,41.7000055,44.8879953,მიხეილ გახოკიძის ქუჩა,1.0554089709762533e-05,950.23
2023-11-06/2023-11-12,41.7005039,44.7757512,რევაზ ჯაფარიძის ქუჩა,3.16622691292876e-05,1739.13
2023-11-06/2023-11-12,41.7007113,44.8105415,შოთა გამცემლიძის ქუჩა,1.0554089709762533e-05,607.14
2023-11-06/2023-11-12,41.70115155,44.93839143472633,სამგორის რაიონი,1.0554089709762533e-05,859.38
2023-11-06/2023-11-12,41.7015494,44.7957882,რევაზ ლაღიძის ქუჩა,1.0554089709762533e-05,1882.35
2023-11-06/2023-11-12,41.7016292,44.8000225,მარია ბროსეს ქუჩა,4.221635883905013e-05,1669.565
2023-11-06/2023-11-12,41.70167015,44.847662265370126,ვაზისუბნის 1-ლი მიკრორაიონი,0.00020052770448548813,863.16
2023-11-06/2023-11-12,41.7018156,44.7823367,ვალერიან გუნიას II გას.,1.0554089709762533e-05,1701.99
2023-11-06/2023-11-12,41.702,44.8000016,პრეზიდენტ ზ. გამსახურდიას სანაპირო,1.0554089709762533e-05,1328.67
2023-11-06/2023-11-12,41.7029189,44.7926852,შოთა რუსთაველის გამზირი,5.277044854881267e-05,2826.67
2023-11-06/2023-11-12,41.7029471,44.7788582,გურამ რჩეულიშვილის ქუჩა,3.16622691292876e-05,1500.0
2023-11-06/2023-11-12,41.7029979,44.7815528,იაკობ გოგებაშვილის II ჩიხი,1.0554089709762533e-05,2411.76
2023-11-06/2023-11-12,41.7035495,44.8017998,რომის ქუჩა,1.0554089709762533e-05,2023.81
2023-11-06/2023-11-12,41.7037263,44.7724829,გიორგი შატბერაშვილის ქუჩა,8.443271767810026e-05,2476.385
2023-11-06/2023-11-12,41.7039551,44.8483474,ზურაბ პატარიძის ქუჩა,1.0554089709762533e-05,1148.15
2023-11-06/2023-11-12,41.7040318,44.7877933,Goethe-Institut in Georgien,8.443271767810026e-05,944.81
2023-11-06/2023-11-12,41.7040582,44.8082696,მიხეილ ბუხაიძის ქუჩა,1.0554089709762533e-05,2297.14
2023-11-06/2023-11-12,41.70414255,44.79892073452957,ალექსანდრე გრიბოედოვის მოედანი,1.0554089709762533e-05,1833.33
2023-11-06/2023-11-12,41.7041899,44.7855688,მიხეილ ზანდუკელის ქუჩა,2.1108179419525066e-05,1766.5099999999998
2023-11-06/2023-11-12,41.7046742,44.770178,მარუხის გმირების ქუჩა,2.1108179419525066e-05,1979.165
2023-11-06/2023-11-12,41.7049538,44.7853533,შოთა მილორავას ქუჩა,1.0554089709762533e-05,2421.88
2023-11-06/2023-11-12,41.7051737,44.7865877,თამარ ჭოველიძის ქუჩა,2.1108179419525066e-05,3085.715
2023-11-06/2023-11-12,41.7052411,44.7721433,ქობულეთის I. შესასვლელი,2.1108179419525066e-05,2173.91
2023-11-06/2023-11-12,41.7055661,44.8200552,გიორგი გედევანიშვილის ქუჩა,1.0554089709762533e-05,1387.1
2023-11-06/2023-11-12,41.7056403,44.7785161,ლარსის ქუჩა,1.0554089709762533e-05,1750.0
2023-11-06/2023-11-12,41.7056436,44.7358963,ირაკლი უჩანეიშვილის ქუჩა,1.0554089709762533e-05,800.0
2023-11-06/2023-11-12,41.7060477,44.7709185,მცხეთის ქუჩა,2.1108179419525066e-05,1425.0
2023-11-06/2023-11-12,41.706205,44.7904128,ლეო ქიაჩელის ქუჩა,3.16622691292876e-05,2823.53
2023-11-06/2023-11-12,41.7063194,44.7747451,შროშის ქუჩა,2.1108179419525066e-05,3269.44
2023-11-06/2023-11-12,41.7063392,44.8481888,ჯუმბერ ლეჟავას I შესახვევი,1.0554089709762533e-05,1040.0
2023-11-06/2023-11-12,41.7063539,44.7579531,ცხვედაძის ქ.,1.0554089709762533e-05,1800.0
2023-11-06/2023-11-12,41.7063787,44.8029491,მიხეილ წინამძღვრიშვილის ქუჩა,2.1108179419525066e-05,1708.335
2023-11-06/2023-11-12,41.7065053,44.7668787,არაყიშვილის I ჩიხი,4.221635883905013e-05,2816.175
2023-11-06/2023-11-12,41.7065433,44.7768734,მოსე ჯანაშვილის ქუჩა,1.0554089709762533e-05,2474.23
2023-11-06/2023-11-12,41.7066772,44.7865125,მელიქიშვილის გამზირი,1.0554089709762533e-05,3803.42
2023-11-06/2023-11-12,41.7067619,44.7817388,სიმონ ჯანაშიას ქუჩა,7.387862796833773e-05,1960.78
2023-11-06/2023-11-12,41.7068069,44.7849854,ე. ტატიშვილის ჩიხი,1.0554089709762533e-05,2087.5
2023-11-06/2023-11-12,41.706933,44.7778367,ვასილ ბარნოვის ქუჩა,5.277044854881267e-05,2239.13
2023-11-06/2023-11-12,41.7074231,44.7806095,ვასილ პეტრიაშვილის ქუჩა,1.0554089709762533e-05,1535.27
2023-11-06/2023-11-12,41.7079852,44.7739069,ზაქარია ფალიაშვილის ქუჩა,9.49868073878628e-05,1988.64
2023-11-06/2023-11-12,41.7080349,44.8590477,თბილისის ზღვის ახალი ქალაქი,5.277044854881267e-05,1250.0
2023-11-06/2023-11-12,41.7082681,44.8112522,დ. ჭიჭინაძის ქუჩა,1.0554089709762533e-05,1156.72
2023-11-06/2023-11-12,41.7082874,44.8055895,არნოლდ ჩიქობავას შესახვევი,1.0554089709762533e-05,1625.0
2023-11-06/2023-11-12,41.7084572,44.8062698,ზურაბ ქვლივიძის ქუჩა,1.0554089709762533e-05,729.17
2023-11-06/2023-11-12,41.7086083,44.7844376,შალვა ღამბაშიძის ქუჩა,1.0554089709762533e-05,2400.0
2023-11-06/2023-11-12,41.7087269,44.7728716,ბაზალეთის ქუჩა,1.0554089709762533e-05,2441.18
2023-11-06/2023-11-12,41.7087295,44.8445562,თამარ ღვალაძის II შესახვევი,1.0554089709762533e-05,1338.46
2023-11-06/2023-11-12,41.7087425,44.7978234,სანკტ-პეტერბურგის ქუჩა,3.16622691292876e-05,1636.36
2023-11-06/2023-11-12,41.7087564,44.7789189,კორნელი კეკელიძის ქუჩა,2.1108179419525066e-05,2000.415
2023-11-06/2023-11-12,41.7087786,44.7646793,ოთარი თაქთაქიშვილის ქუჩა,1.0554089709762533e-05,4494.79
2023-11-06/2023-11-12,41.7088451,44.7697397,მირცხულავას ქუჩა,0.00021108179419525067,1184.27
2023-11-06/2023-11-12,41.7089119,44.7830576,გიორგი ქუჩიშვილის ქუჩა,2.1108179419525066e-05,2229.165
2023-11-06/2023-11-12,41.7089357,44.8034032,გიორგი მაზნიაშვილის ქუჩა,1.0554089709762533e-05,895.52
2023-11-06/2023-11-12,41.7094372,44.7551934,გრიგოლ მუხაძის ქუჩა,1.0554089709762533e-05,763.64
2023-11-06/2023-11-12,41.7095941,44.7968749,მარჯანიშვილი,2.1108179419525066e-05,1104.81
2023-11-06/2023-11-12,41.7098152,44.7730111,ატენის ქუჩა,4.221635883905013e-05,1796.22
2023-11-06/2023-11-12,41.7100623,44.8047404,მაქსიმ გორკის ქუჩა,1.0554089709762533e-05,1090.91
2023-11-06/2023-11-12,41.7101506,44.8193015,პ. ბაგრატიონის ქუჩა,2.1108179419525066e-05,1685.6100000000001
2023-11-06/2023-11-12,41.7101721,44.7409007,ვ. ლეჟავას ქუჩა,1.0554089709762533e-05,505.68
2023-11-06/2023-11-12,41.7102343,44.7845388,ლუარსაბ ბოცვაძის ქუჩა,1.0554089709762533e-05,1294.12
2023-11-06/2023-11-12,41.7102387,44.7728277,გრიგოლ აბაშიძის ქუჩა,7.387862796833773e-05,1746.03
2023-11-06/2023-11-12,41.7104505,44.7565755,ილო მოსაშვილის ქუჩა,4.221635883905013e-05,1992.4
2023-11-06/2023-11-12,41.7105135,44.7660898,ჭავჭავაძის გამზირი 1-ლი ჩიხი,1.0554089709762533e-05,1800.0
2023-11-06/2023-11-12,41.71078515,44.90122497907073,ვარკეთილის მეურნეობა,2.1108179419525066e-05,1100.0
2023-11-06/2023-11-12,41.7113175,44.7959967,დავით აღმაშენებლის გამზირი,9.49868073878628e-05,1417.91
2023-11-06/2023-11-12,41.7117169,44.72626671202614,,1.0554089709762533e-05,1893.94
2023-11-06/2023-11-12,41.7120113,44.8775867,ვიქტორ კუპრაძის ქუჩა,0.00014775725593667546,1207.85
2023-11-06/2023-11-12,41.7121766,44.7811063,ჭაბუა ამირეჯიბის გზატკეცილი,8.443271767810026e-05,2128.535
2023-11-06/2023-11-12,41.7125321,44.7667872,"ზ, ავალიშვილის ქუჩა",5.277044854881267e-05,2285.71
2023-11-06/2023-11-12,41.7126196,44.7670307,ნინო რამიშვილის ქუჩა,1.0554089709762533e-05,1404.49
2023-11-06/2023-11-12,41.7131224,44.8050886,გიორგი ერისთავის ქუჩა,3.16622691292876e-05,1300.0
2023-11-06/2023-11-12,41.7132578,44.7088932,წყნეთის გზატკეცილი,0.00020052770448548813,1618.42
2023-11-06/2023-11-12,41.7137831,44.7177004,ბაგები,1.0554089709762533e-05,2070.59
2023-11-06/2023-11-12,41.7141725,44.7596077,ნიკოლოზ ყიფშიძის ქუჩა,0.0003482849604221636,1875.0
2023-11-06/2023-11-12,41.7144175,44.7436858,გივი სვანიძის ქუჩა,2.1108179419525066e-05,1852.24
2023-11-06/2023-11-12,41.7144838,44.7664163,სიმონ ჩიქოვანის ქუჩა,1.0554089709762533e-05,2104.17
2023-11-06/2023-11-12,41.7147524,44.8031729,პორპილე ჩანჩიბაძის ქუჩა,1.0554089709762533e-05,731.71
2023-11-06/2023-11-12,41.7152447,44.7574165,ვლადიმერ გაბაშვილის ქუჩა,0.00011609498680738787,1431.82
2023-11-06/2023-11-12,41.7156691,44.7998915,გიორგი ჩუბინაშვილის ქუჩა,1.0554089709762533e-05,1187.5
2023-11-06/2023-11-12,41.71573395,44.72558560003113,თბილისის ივანე ჯავახიშვილის სახელობის სახელმწიფო უნივერსიტეტი,2.1108179419525066e-05,1162.0900000000001
2023-11-06/2023-11-12,41.7162486,44.774766,პლატონ იოსელიანის ქუჩა,5.277044854881267e-05,1430.0
2023-11-06/2023-11-12,41.7172719,44.80223,გიორგი ჩიტაიას ქუჩა,3.16622691292876e-05,1148.15
2023-11-06/2023-11-12,41.7181022,44.7807554,ბერბუკის ქუჩა,9.49868073878628e-05,1538.46
2023-11-06/2023-11-12,41.7181101,44.7833032,მერაბ ალექსიძის III შეს.,0.00013720316622691292,2656.25
2023-11-06/2023-11-12,41.7185053,44.7696734,ზაზა ფანასკერტელ-ციციშვილის ქუჩა (Zaza Panaskerteli-Tsitsishvili St),1.0554089709762533e-05,1235.52
2023-11-06/2023-11-12,41.7186244,44.7805834,პავლე ასლანიდის ქუჩა,2.1108179419525066e-05,1615.4
2023-11-06/2023-11-12,41.718641149999996,44.76503200854272,იყალტოს გორა,5.277044854881267e-05,1288.17
2023-11-06/2023-11-12,41.7190503,44.7253873,ჯურხა ნადირაძის ქუჩა,1.0554089709762533e-05,2023.26
2023-11-06/2023-11-12,41.7191232,44.7370577,უნივერსიტეტის I შესახვევი,0.00021108179419525067,1881.0149999999999
2023-11-06/2023-11-12,41.7191946,44.7803645,ბიძინა კვერნაძის ქუჩა,8.443271767810026e-05,1833.005
2023-11-06/2023-11-12,41.7195641,44.7590348,ბახტრიონის ქუჩა,0.00013720316622691292,1500.0
2023-11-06/2023-11-12,41.7195742,44.7205383,ვაგან მამასახლისოვის ქუჩა,1.0554089709762533e-05,1160.0
2023-11-06/2023-11-12,41.7199363,44.8149438,აფხაზეთის ქუჩა,1.0554089709762533e-05,875.0
2023-11-06/2023-11-12,41.7199364,44.7956526,ეგნატე ნინოშვილის ქუჩა,2.1108179419525066e-05,1115.975
2023-11-06/2023-11-12,41.7200371,44.7164636,ანა პოლიტკოვსკაიას ქუჩა,0.0010765171503957784,1657.66
2023-11-06/2023-11-12,41.7200891,44.7179865,პეტრე ქავთარაძის ქუჩა,0.00036939313984168866,1562.5
2023-11-06/2023-11-12,41.720146,44.704685,Წმინდა მოწამე ვასილისკოს ქუჩა,3.16622691292876e-05,1826.92
2023-11-06/2023-11-12,41.7204157,44.779444,გიორგი მიროტაძის ქუჩა,9.49868073878628e-05,1818.18
2023-11-06/2023-11-12,41.7205863,44.7407698,ოთარ ლორთქიფანიძის ქუჩა,8.443271767810026e-05,1476.365
2023-11-06/2023-11-12,41.7213996,44.7510811,გივი კარტოზიას ქუჩა,9.49868073878628e-05,2383.72
2023-11-06/2023-11-12,41.7215552,44.720010833729745,ვაჟა-ფშაველას გამზირის VI კვარტალი,6.33245382585752e-05,1515.1550000000002
2023-11-06/2023-11-12,41.7215727,44.752629,სულხან ცინცაძის ქუჩა,0.0002849604221635884,1470.59
2023-11-06/2023-11-12,41.7217508,44.7766462,იპოლიტე ხვიჩიას ქუჩა,4.221635883905013e-05,1314.2849999999999
2023-11-06/2023-11-12,41.7218377,44.82545963440259,ხუდადოვის ტყე,2.1108179419525066e-05,1334.9650000000001
2023-11-06/2023-11-12,41.721980099999996,44.72721061574005,ვაჟა-ფშაველას გამზირის მე-7 კვარტალი,9.49868073878628e-05,1333.33
2023-11-06/2023-11-12,41.7223878,44.7299233,მარიჯანის ქუჩა,5.277044854881267e-05,1544.62
2023-11-06/2023-11-12,41.7224558,44.7409426,ედიშერ მაღალაშვილის ქუჩა,1.0554089709762533e-05,1263.44
2023-11-06/2023-11-12,41.7226435,44.7078673,ელიზბარ მინდელის ქუჩა,0.00027440633245382585,1842.11
2023-11-06/2023-11-12,41.72269685,44.75740613462273,საირმის გორა,0.00011609498680738787,1453.33
2023-11-06/2023-11-12,41.7227239,44.717604283222315,სოხუმის მოედანი,4.221635883905013e-05,1411.4299999999998
2023-11-06/2023-11-12,41.7228734,44.7328471,დავით თავხელიძის ქუჩა,3.16622691292876e-05,1661.29
2023-11-06/2023-11-12,41.7229942,44.7438118,კალისტრატე ქუთათელაძის ქუჩა,7.387862796833773e-05,1811.59
2023-11-06/2023-11-12,41.7232556,44.7559788,მიხეილ ბურძგლას ქუჩა,0.00014775725593667546,1744.19
2023-11-06/2023-11-12,41.7234752,44.7770519,მერაბ კოსტავას ქუჩა,0.00016886543535620053,1995.665
2023-11-06/2023-11-12,41.7236072,44.7689581,არჩილ ცაგარელის ქუჩა,9.49868073878628e-05,1754.72
2023-11-06/2023-11-12,41.7238305,44.74713592127524,Axis,1.0554089709762533e-05,1321.84
2023-11-06/2023-11-12,41.7240613,44.7455804,მიხეილ თამარაშვილის ქუჩა,0.00017941952506596306,2466.22
2023-11-06/2023-11-12,41.724162,44.7311381,ვაჟა-ფშაველას გამზირის 2 კვარტალი,0.0002216358839050132,1402.78
2023-11-06/2023-11-12,41.724189800000005,44.753657252964,ვასო გოძიაშვილის სახელობის ბაღი,0.0001266490765171504,1031.21
2023-11-06/2023-11-12,41.7243479,44.7620268,ადამ მიცკევიჩის ქუჩა,0.00013720316622691292,1800.0
2023-11-06/2023-11-12,41.72440505,44.71985638612588,ვაჟა-ფშაველას გამზირის IV კვარტალი,1.0554089709762533e-05,1400.0
2023-11-06/2023-11-12,41.7244082,44.7168682,ზურაბ ანჯაფარიძის ქუჩა,0.00013720316622691292,1805.56
2023-11-06/2023-11-12,41.724546,44.780376,ვახტანგ ბოჭორიშვილის ქუჩა,0.00021108179419525067,1387.255
2023-11-06/2023-11-12,41.724625,44.788096838234814,,3.16622691292876e-05,1187.5
2023-11-06/2023-11-12,41.7246476,44.7224736,მიხეილ შავიშვილის ქუჩა,0.0001266490765171504,2131.82
2023-11-06/2023-11-12,41.7247015,44.7452253,გ. გაბაშვილის ქუჩა,1.0554089709762533e-05,951.22
2023-11-06/2023-11-12,41.7248087,44.7902055,სლავა მეტრეველის ქუჩა,1.0554089709762533e-05,1576.27
2023-11-06/2023-11-12,41.725047700000005,44.71511662854839,ომარ კელაპტრიშვილის სახელობის სკვერი,2.1108179419525066e-05,1149.6599999999999
2023-11-06/2023-11-12,41.7250935,44.72669111999934,ვაჟა-ფშაველას გამზირის III კვარტალი,5.277044854881267e-05,973.33
2023-11-06/2023-11-12,41.72515435,44.739016967152665,გელოვანის ბაღი,1.0554089709762533e-05,1500.0
2023-11-06/2023-11-12,41.7257647,44.73429918071663,ვაჟა-ფშაველას გამზირის II კვარტალი,7.387862796833773e-05,1444.44
2023-11-06/2023-11-12,41.7259247,44.8021605,მიხეილ მესხის I შესახვევი,7.387862796833773e-05,1094.59
2023-11-06/2023-11-12,41.7259432,44.7788999,გიორგი სააკაძის 2 გასასვლელი,1.0554089709762533e-05,1394.74
2023-11-06/2023-11-12,41.7259982,44.7995217,ცოტნე დადიანის ქუჩა,1.0554089709762533e-05,1485.15
2023-11-06/2023-11-12,41.7260828,44.7696199,პეკინის გამზირი,0.00010554089709762533,1700.0
2023-11-06/2023-11-12,41.7263628,44.7225169,გიორგი შავგულიძის ქუჩა,3.16622691292876e-05,1547.95
2023-11-06/2023-11-12,41.7264909,44.74177161824572,ვაჟა-ფშაველას გამზირის I კვარტალი,3.16622691292876e-05,1086.96
2023-11-06/2023-11-12,41.7265187,44.7393043,თ. ბუაჩიძის ქუჩა,2.1108179419525066e-05,1200.15
2023-11-06/2023-11-12,41.7265677,44.74991700285831,თბილისი გარდენსის გაყიდვების ოფისი,0.00011609498680738787,2845.85
2023-11-06/2023-11-12,41.7270196,44.7995778,ც.დადიანის,0.00043271767810026387,1300.8
2023-11-06/2023-11-12,41.7271321,44.7880765,დიდუბის რაიონი,1.0554089709762533e-05,1195.65
2023-11-06/2023-11-12,41.7271421,44.7281974,რევაზ მარგიანის ქუჩა,1.0554089709762533e-05,1200.0
2023-11-06/2023-11-12,41.7271507,44.7638147,ტაშკენტის ქუჩა,2.1108179419525066e-05,1810.31
2023-11-06/2023-11-12,41.7276055,44.7903064,ფოთის ქუჩა,1.0554089709762533e-05,1351.35
2023-11-06/2023-11-12,41.7278031,44.7481782,სერგო ზაქარიაძის ქუჩა,4.221635883905013e-05,915.82
2023-11-06/2023-11-12,41.7279351,44.7522881,ზურაბ და თეიმურაზ ზალდასტანიშვილების ქუჩა,1.0554089709762533e-05,1634.15
2023-11-06/2023-11-12,41.7283476,44.7866378,იროდიონ ევდოშვილის ქუჩა,2.1108179419525066e-05,1263.52
2023-11-06/2023-11-12,41.7287987,44.739188,Gamrekeli I. Street,1.0554089709762533e-05,1666.67
2023-11-06/2023-11-12,41.72901014999999,44.72556184569022,,0.0001266490765171504,1090.91
2023-11-06/2023-11-12,41.7294692,44.7610362,გურამ ფანჯიკიძის ქუჩა,1.0554089709762533e-05,1361.11
2023-11-06/2023-11-12,41.7297383,44.7679935,თინა იოსებიძის ქუჩა,2.1108179419525066e-05,1093.2649999999999
2023-11-06/2023-11-12,41.7297891,44.733313255012135,ნუცუბიძის პლატო 3 მ/რ,2.1108179419525066e-05,1008.835
2023-11-06/2023-11-12,41.7299464,44.7845384,რაჟდენ გვეტაძის ქუჩა,1.0554089709762533e-05,1200.0
2023-11-06/2023-11-12,41.7300787,44.743764,გაზაფხულის ქუჩა,6.33245382585752e-05,2073.035
2023-11-06/2023-11-12,41.7301979,44.758806,ბუდაპეშტის ქუჩა,4.221635883905013e-05,1487.01
2023-11-06/2023-11-12,41.7302181,44.7590432,იონა ვაკელის ქუჩა,1.0554089709762533e-05,1738.46
2023-11-06/2023-11-12,41.7303293,44.8338217,ვ. კანდელაკის ქუჩა,1.0554089709762533e-05,1785.71
2023-11-06/2023-11-12,41.7306873,44.7521294,ვ. ჩიქოვანის ქუჩა,5.277044854881267e-05,1250.0
2023-11-06/2023-11-12,41.7307083,44.7440595,კამანის ქუჩა,3.16622691292876e-05,1000.0
2023-11-06/2023-11-12,41.7307913,44.7894652,თევდორე მღვდლის ქუჩა,2.1108179419525066e-05,925.0
2023-11-06/2023-11-12,41.730957599999996,44.7230464,,1.0554089709762533e-05,1449.28
2023-11-06/2023-11-12,41.7311651,44.7693824,ჟ. შარტავას ქუჩა,0.00035883905013192613,1498.03
2023-11-06/2023-11-12,41.7312838,44.767649205620344,ზურაბ ჟვანიას მოედანი,0.00016886543535620053,1753.9650000000001
2023-11-06/2023-11-12,41.7313315,44.7630581,ოთარ ონიაშვილის ქუჩა,9.49868073878628e-05,1928.57
2023-11-06/2023-11-12,41.7318858,44.7864819,პირიდონ კედიას ქუჩა,1.0554089709762533e-05,2000.0
2023-11-06/2023-11-12,41.7319782,44.734453,პაატა დათუაშვილის ქუჩა,9.49868073878628e-05,1709.09
2023-11-06/2023-11-12,41.7320155,44.7629208,ლვოვის ქუჩა,2.1108179419525066e-05,714.915
2023-11-06/2023-11-12,41.7321081,44.7232984,ნუცუბიძის პლატო 5 მკრ,8.443271767810026e-05,1489.675
2023-11-06/2023-11-12,41.732147,44.7448497,თამაზ ნადარეიშვილის ქუჩა,3.16622691292876e-05,1870.59
2023-11-06/2023-11-12,41.7321563,44.7352948,ელგუჯა ამაშუკელის ქუჩა,0.00020052770448548813,1602.21
2023-11-06/2023-11-12,41.7322318,44.7292192,მელიტონ ქანთარიას ქუჩა,1.0554089709762533e-05,1121.95
2023-11-06/2023-11-12,41.7328022,44.9065727,Tbilisi Railway Bypass,0.0003271767810026385,1006.06
2023-11-06/2023-11-12,41.73289195,44.77285013362726,გოთუას სახელობის პარკი,7.387862796833773e-05,1095.24
2023-11-06/2023-11-12,41.73292735,44.7289248,Nutsubidze Plato 4 M/R 9B,0.00017941952506596306,1561.82
2023-11-06/2023-11-12,41.7329503,44.725785266901006,ნუცუბიძის ფერდობი,0.0003271767810026385,1388.89
2023-11-06/2023-11-12,41.7333939,44.764809,ი. ნონეშვილის ქუჩა,9.49868073878628e-05,1202.82
2023-11-06/2023-11-12,41.73340905,44.729475474974734,,2.1108179419525066e-05,1044.7150000000001
2023-11-06/2023-11-12,41.7335765,44.7812967,ხოშარაულის ქუჩა,0.00010554089709762533,1146.3000000000002
2023-11-06/2023-11-12,41.7336241,44.7669944,სოფრომ მგალობლიშვილის ქუჩა,2.1108179419525066e-05,1471.9099999999999
2023-11-06/2023-11-12,41.7340348,44.7695147,ი. გაგარინის IV შესახვევი,0.0001899736147757256,1400.0
2023-11-06/2023-11-12,41.7341422,44.7729202,პრეზიდენტ ჰეიდარ ალიევის სანაპირო,1.0554089709762533e-05,2215.38
2023-11-06/2023-11-12,41.7346366,44.7250532,Tbilisi Kindergarten #183,4.221635883905013e-05,842.95
2023-11-06/2023-11-12,41.7346878,44.8213725,ხერთვისის ქუჩა,1.0554089709762533e-05,857.14
2023-11-06/2023-11-12,41.7350909,44.781084487821076,,1.0554089709762533e-05,1286.67
2023-11-06/2023-11-12,41.7351889,44.7335158,ლ. ასათიანის ქუჩა,3.16622691292876e-05,2604.17
2023-11-06/2023-11-12,41.7355592,44.7480266,ბერიტაშვილის ქუჩა,4.221635883905013e-05,1781.82
2023-11-06/2023-11-12,41.7357051,44.7379701,სერგი დანელიას ქუჩა,1.0554089709762533e-05,2000.0
2023-11-06/2023-11-12,41.7359604,44.767978,იოსებ იმედაშვილის ქუჩა,1.0554089709762533e-05,1209.21
2023-11-06/2023-11-12,41.7362009,44.7651672,ზემო ვეძისის ქუჩა,1.0554089709762533e-05,1386.27
2023-11-06/2023-11-12,41.7365163,44.7947961,გიორგი ჭყონდიდელის ქუჩა,0.0001266490765171504,1212.5
2023-11-06/2023-11-12,41.7368589,44.7777789,რაფიელ აგლაძის ქუჩა,0.0001266490765171504,1315.79
2023-11-06/2023-11-12,41.7378094,44.7244407,ამბერკი ტაბიძის ქუჩა,1.0554089709762533e-05,3200.0
2023-11-06/2023-11-12,41.7384084,44.71525412080008,ავთო ვარაზის ქუჩა,0.0001899736147757256,1484.575
2023-11-06/2023-11-12,41.7386198,44.7788163,სტანისლავსკის ქუჩა,2.1108179419525066e-05,1508.77
2023-11-06/2023-11-12,41.7399325,44.7706916,აკაკი ბაქრაძის ქუჩა,3.16622691292876e-05,1315.79
2023-11-06/2023-11-12,41.7402687,44.7211901,ფერმწერთა ქუჩა,0.00010554089709762533,1150.77
2023-11-06/2023-11-12,41.7409197,44.7700047,მარშალ გელოვანის გამზირი,0.000158311345646438,1461.38
2023-11-06/2023-11-12,41.7420916,44.7858581,ზესტაფონის ქუჩა,3.16622691292876e-05,1250.0
2023-11-06/2023-11-12,41.7431956,44.762363,მუხრან მაჭავარიანის ქუჩა,0.0002955145118733509,1514.835
2023-11-06/2023-11-12,41.743903849999995,44.73460484132602,ლისის ტბა,0.00011609498680738787,1793.65
2023-11-06/2023-11-12,41.7441756,44.7874423,ვახტანგ ნინუას ქუჩა,5.277044854881267e-05,1150.0
2023-11-06/2023-11-12,41.74434,44.7742761,წყალტუბოს ქუჩა,6.33245382585752e-05,1707.32
2023-11-06/2023-11-12,41.7489512,44.768151,ბროწეულის ქუჩა,2.1108179419525066e-05,904.3199999999999
2023-11-06/2023-11-12,41.7497435,44.7999571,ეკა ბეჟანიშვილის ქუჩა,2.1108179419525066e-05,955.425
2023-11-06/2023-11-12,41.7514276,44.7625752,ვალენტინ Თოფურიძის შესახვევი,5.277044854881267e-05,1291.26
2023-11-06/2023-11-12,41.7538827,44.7753235,Trans Argo Tbilisi,3.16622691292876e-05,1030.77
2023-11-06/2023-11-12,41.7540023,44.7591158,არზაყან ემუხვარის,1.0554089709762533e-05,1304.35
2023-11-06/2023-11-12,41.7550874,44.7934339,გვაზაურის ქუჩა,1.0554089709762533e-05,1164.38
2023-11-06/2023-11-12,41.7553103,44.7684355,პეტრე სარაჯიშვილის ქუჩა (Petre Sarajishvili St.),2.1108179419525066e-05,967.39
2023-11-06/2023-11-12,41.7554822,44.8042039678946,ღრმაღელის სასაფლაო,3.16622691292876e-05,1133.33
2023-11-06/2023-11-12,41.7580827,44.7709289897397,დიღმის მასივი I კვარტალი,2.1108179419525066e-05,1351.975
2023-11-06/2023-11-12,41.75837565,44.7767132630648,დიღმის მასივი III კვარტალი,3.16622691292876e-05,923.88
2023-11-06/2023-11-12,41.7604995,44.7923475,ჩარგლის ქუჩა,0.00011609498680738787,1400.0
2023-11-06/2023-11-12,41.7622471,44.7863707,ერწოს ქუჩა,3.16622691292876e-05,1055.56
2023-11-06/2023-11-12,41.763008,44.7691666,Reikartz Horizont Tbilisi,5.277044854881267e-05,1390.0
2023-11-06/2023-11-12,41.7641407,44.77761429741787,დიღმის მასივი IV კვარტალი,3.16622691292876e-05,1611.11
2023-11-06/2023-11-12,41.7642308,44.7871774,ქვიშხეთის ქუჩა,3.16622691292876e-05,1305.68
2023-11-06/2023-11-12,41.7646239,44.7886111,სამტრედიის ქუჩა,6.33245382585752e-05,1055.975
2023-11-06/2023-11-12,41.7651242,44.7979716,ხორნაბუჯის ქუჩა,1.0554089709762533e-05,796.3
2023-11-06/2023-11-12,41.7664905,44.790376,ქსნის ქუჩა,1.0554089709762533e-05,878.5
2023-11-06/2023-11-12,41.7672372,44.7624451,გიორგი ბრწყინვალეს ქუჩა,0.00014775725593667546,1227.875
2023-11-06/2023-11-12,41.7710379,44.7553338,ავთანდილის ქუჩა,8.443271767810026e-05,1388.525
2023-11-06/2023-11-12,41.7725681,44.7663342,ლუარსაბ ანდრონიკაშვილის ქუჩა,2.1108179419525066e-05,1016.0500000000001
2023-11-06/2023-11-12,41.77302415,44.740498390027646,,1.0554089709762533e-05,1875.0
2023-11-06/2023-11-12,41.7731729,44.7800877,ჭიაურელის ქუჩა,1.0554089709762533e-05,2289.72
2023-11-06/2023-11-12,41.7734596,44.7682263,ქალაქ თბილისის პროკურატურა,3.16622691292876e-05,1226.67
2023-11-06/2023-11-12,41.7742168,44.798613,ვასილ კაკაბაძის ქუჩა,1.0554089709762533e-05,2200.0
2023-11-06/2023-11-12,41.7757252,44.7776225,კონსტანტინე ჩაჩავას ქუჩა,4.221635883905013e-05,1770.395
2023-11-06/2023-11-12,41.7773673,44.7424019,ალექსანდრე ყაზბეგის ქუჩა,0.00016886543535620053,1553.26
2023-11-06/2023-11-12,41.7792703,44.748343,შერმადინის ქუჩა,2.1108179419525066e-05,1166.08
2023-11-06/2023-11-12,41.7800263,44.7553298,ხატაეთის ქუჩა,5.277044854881267e-05,1240.0
2023-11-06/2023-11-12,41.7801877,44.8184886,ლევან რჩეულიშვილის ქუჩა,1.0554089709762533e-05,780.0
2023-11-06/2023-11-12,41.7802568,44.7727131,ნოდარ ბოხუას ქუჩა,0.00011609498680738787,1301.59
2023-11-06/2023-11-12,41.7825121,44.8008368,ანაპის 414-ე დივიზიის ქუჩა,0.00010554089709762533,1227.4099999999999
2023-11-06/2023-11-12,41.782601,44.7592602,თინათინის ქუჩა,1.0554089709762533e-05,1071.43
2023-11-06/2023-11-12,41.7826207,44.75237,ფატმანის ქუჩა,3.16622691292876e-05,759.75
2023-11-06/2023-11-12,41.7834317,44.7553694,რამაზის ქუჩა,3.16622691292876e-05,1272.73
2023-11-06/2023-11-12,41.7837919,44.7664386,ფარსადანის ქუჩა,4.221635883905013e-05,1207.025
2023-11-06/2023-11-12,41.7838853,44.7305814,დიღომი,3.16622691292876e-05,1268.66
2023-11-06/2023-11-12,41.7842021,44.7523462,ტარიელის ქუჩა,1.0554089709762533e-05,882.35
2023-11-06/2023-11-12,41.7849279,44.7642937,ასმათის ქუჩა,0.00010554089709762533,1151.6399999999999
2023-11-06/2023-11-12,41.7851211,44.7392391,ჰაინრიხ კლაპროთის ქუჩა,4.221635883905013e-05,1194.555
2023-11-06/2023-11-12,41.7852421,44.7654023,მელიქ-სურხავის ქუჩა,2.1108179419525066e-05,1200.0
2023-11-06/2023-11-12,41.7857949,44.7579682,დავარის ქუჩა,8.443271767810026e-05,1238.3
2023-11-06/2023-11-12,41.7858808,44.7397034,კრისტიან სტივენის ქუჩა,1.0554089709762533e-05,600.0
2023-11-06/2023-11-12,41.7862353,44.7642492,როსტევანის ქუჩა,7.387862796833773e-05,1258.62
2023-11-06/2023-11-12,41.7864577,44.77967,აკაკი ბელიაშვილის ქუჩა,5.277044854881267e-05,1381.36
2023-11-06/2023-11-12,41.7867757,44.7569113,ვეფხისტყაოსნის ქუჩა,0.000158311345646438,1125.0
2023-11-06/2023-11-12,41.7868553,44.8172492,ბრონშტეინის ქუჩა,1.0554089709762533e-05,1188.12
2023-11-06/2023-11-12,41.7869166,44.7445743,სტრაბონის ქუჩა,3.16622691292876e-05,942.7
2023-11-06/2023-11-12,41.7874836,44.7630328,მეფე მირიანის ქუჩა,0.0006437994722955145,1179.25
2023-11-06/2023-11-12,41.787941,44.8003256,დ. სარაჯიშვილის გამზირი,4.221635883905013e-05,1240.74
2023-11-06/2023-11-12,41.7883178,44.8182232,რამაზ შენგელიას ქუჩა,8.443271767810026e-05,1226.42
2023-11-06/2023-11-12,41.7886699,44.8061987,ევგენი ხარაძის ქუჩა,1.0554089709762533e-05,1200.0
2023-11-06/2023-11-12,41.790867,44.8182214,გობრონიძის ქუჩა (Gobronidze Street),0.00020052770448548813,1095.59
2023-11-06/2023-11-12,41.7910558,44.8149983,ახმეტელის თეატრი,4.221635883905013e-05,1458.33
2023-11-06/2023-11-12,41.79163,44.8164333,ილია ვეკუას ქუჩა,4.221635883905013e-05,957.5
2023-11-06/2023-11-12,41.79196055,44.75029434538619,დიდი დიღომი,1.0554089709762533e-05,1262.3
2023-11-06/2023-11-12,41.7924757,44.739673,არჩილ მეფის ქუჩა,0.00020052770448548813,1125.0
2023-11-06/2023-11-12,41.7925119,44.7593139,იოანე პეტრიწის ქუჩა,5.277044854881267e-05,951.92
2023-11-06/2023-11-12,41.7938779,44.7421584,King Bagrat III St,4.221635883905013e-05,889.8399999999999
2023-11-06/2023-11-12,41.7938884,44.755381,პეტრე იბერის ქუჩა,0.00040105540897097627,1195.955
2023-11-06/2023-11-12,41.7942909,44.7837473,ბობ უოლშის II შესახვევი,6.33245382585752e-05,969.8399999999999
2023-11-06/2023-11-12,41.7964166,44.7520138,დემეტრე თავდადებულის ქუჩა,0.0005699208443271768,851.9
2023-11-06/2023-11-12,41.8009587,44.7479203,ასი ათასი მოწამის ქუჩა,8.443271767810026e-05,1241.095
2023-11-06/2023-11-12,41.8037365,44.8166869,ა. რაზმაძის ქუჩა,2.1108179419525066e-05,1081.99
2023-11-06/2023-11-12,41.8049264,44.8216417,მიხეილ ხერგიანის ქუჩა,2.1108179419525066e-05,1100.08
2023-11-06/2023-11-12,41.8069528,44.8330845,ხიზანიშვილის ქ. (Khizanishvili Str.),6.33245382585752e-05,1166.5700000000002
2023-11-06/2023-11-12,41.8107667,44.7763943,დიღომი 8,1.0554089709762533e-05,1171.88
2023-11-06/2023-11-12,41.8123944,44.8251617,ზაქარია მაისურაძის ქუჩა,1.0554089709762533e-05,1000.0
2023-11-06/2023-11-12,41.816446299999996,44.79649933840503,ლიბანის სკვერი,2.1108179419525066e-05,800.2950000000001
2023-11-06/2023-11-12,41.8214958,44.8265009,ქერჩის ქუჩა,0.0003799472295514512,1288.69
2023-11-06/2023-11-12,41.8225231,44.7844664,წმინდა ქეთევან წამებულის სახელობის ეკლესია,0.00014775725593667546,1377.4450000000002
2023-11-06/2023-11-12,41.8262639,44.8057542,ნოდარ დუმბაძის ქუჩა,8.443271767810026e-05,1019.625
2023-11-06/2023-11-12,41.839807,43.384652,Tbilisi,0.0007071240105540897,2496.12
2023-11-06/2023-11-12,42.512148,41.8691857,Metro Bus a Tblilisi,1.0554089709762533e-05,2345.45
2023-11-13/2023-11-19,41.6284342,44.9222642,რუსთავის გზატკეცილი,4.221635883905013e-05,767.4
2023-11-13/2023-11-19,41.6305462,44.91769801455217,ფონიჭალა,8.443271767810026e-05,892.47
2023-11-13/2023-11-19,41.6315727,44.9093024,გურამ პატარაიას ქუჩა,1.0554089709762533e-05,1037.74
2023-11-13/2023-11-19,41.6452857,44.7534459,თრიალეთის ქუჩა,0.00023218997361477574,1314.81
2023-11-13/2023-11-19,41.6474869,44.7602777,გრ. რობაქიძის II შესახვევი,0.0002849604221635884,1051.72
2023-11-13/2023-11-19,41.6493055,44.7602594,გრ. ორბელიანის ქუჩა,1.0554089709762533e-05,1683.67
2023-11-13/2023-11-19,41.6530496,44.7553301,ვახტანგ გორგასლის ქუჩა,0.0017941952506596306,1318.84
2023-11-13/2023-11-19,41.657316,44.872239390029385,კრწანისის რაიონი,0.0009076517150395779,1923.08
2023-11-13/2023-11-19,41.6613435,44.7134386,იუნკერთა ქუჩა,2.1108179419525066e-05,1396.855
2023-11-13/2023-11-19,41.6668639,44.8891798,ქინძმარაულის I შესახვევი,0.0003482849604221636,1029.41
2023-11-13/2023-11-19,41.6669144,44.8973184,ნაკადულის ქუჩა,0.00010554089709762533,800.0
2023-11-13/2023-11-19,41.6671043,44.8930646,ოცხელის ქუჩა,2.1108179419525066e-05,827.59
2023-11-13/2023-11-19,41.66818275,44.85258474812308,ორთაჭალის სასაფლაო,0.00045382585751978894,1457.14
2023-11-13/2023-11-19,41.6696516,44.9135732,Gumathesi Street,8.443271767810026e-05,787.5
2023-11-13/2023-11-19,41.6721906,44.8773537,ბერი გაბრიელ სალოსის გამზირი,0.0018364116094986807,1085.8200000000002
2023-11-13/2023-11-19,41.6732122,44.87276813300214,,0.00013720316622691292,1250.0
2023-11-13/2023-11-19,41.6735884,44.8523018,შ. ნადირაშვილის ქუჩა,0.001445910290237467,1013.89
2023-11-13/2023-11-19,41.6747828,44.7546698,წავკისის ველი,5.277044854881267e-05,1923.08
2023-11-13/2023-11-19,41.6754651,44.8773492,მოსკოვის გამზირი,0.0023430079155672824,1015.655
2023-11-13/2023-11-19,41.675465700000004,44.829620476266534,დიმიტრი გულუას მოედანი,0.00011609498680738787,1507.94
2023-11-13/2023-11-19,41.6760312,44.8189321,კრწანისის I გასასვლელი,4.221635883905013e-05,2807.125
2023-11-13/2023-11-19,41.6760677,44.8350528,დიმიტრი გულიას ქუჩა,0.0002532981530343008,1298.25
2023-11-13/2023-11-19,41.67659915,44.85307476129846,მაიორ შალვა დოლიძის სახელობის სკვერი,0.0007598944591029024,1679.9450000000002
2023-11-13/2023-11-19,41.67671025,44.91284284491345,,9.49868073878628e-05,661.97
2023-11-13/2023-11-19,41.6770168,44.8388703,რიჩარდ ჰოლბრუკის ქუჩა,0.0004432717678100264,1554.9450000000002
2023-11-13/2023-11-19,41.6770823,44.7794082,ტ. ტაბიძის 1-ლი შესახვევი,0.00014775725593667546,2071.075
2023-11-13/2023-11-19,41.6770986,44.8350239,დიდი ხეივნის I შესახვევი,1.0554089709762533e-05,1392.41
2023-11-13/2023-11-19,41.6772915,44.8826722,გრიგოლ ლორთქიფანიძის ქუჩა,2.1108179419525066e-05,807.98
2023-11-13/2023-11-19,41.6775804,44.8498954,დოდაშვილის ქუჩა,0.00017941952506596306,1218.75
2023-11-13/2023-11-19,41.6788516,44.8419719,ექიმის გასასვლელი,1.0554089709762533e-05,1500.0
2023-11-13/2023-11-19,41.6800849,44.9871184,თენგიზ სტურუას ქუჩა,1.0554089709762533e-05,390.8
2023-11-13/2023-11-19,41.681404,44.8385332,ნავთლუღის ქუჩა,1.0554089709762533e-05,888.89
2023-11-13/2023-11-19,41.6817295,44.8425369,ვ. ლობჟანიძის ქუჩა,3.16622691292876e-05,1542.86
2023-11-13/2023-11-19,41.68173135,44.82019138848683,,8.443271767810026e-05,1641.51
2023-11-13/2023-11-19,41.6820281,44.82412553155259,ჟანი კალანდაძის პარკი,0.0016147757255936675,1236.95
2023-11-13/2023-11-19,41.6823956,44.8400103,ნავთლუღის ქუჩა,0.0010026385224274406,1612.9
2023-11-13/2023-11-19,41.6824209,44.98411,ევგენი აფხაზავას I შესახვევი,2.1108179419525066e-05,871.62
2023-11-13/2023-11-19,41.682465,44.9175141,ქიზიყის ქუჩა,2.1108179419525066e-05,788.46
2023-11-13/2023-11-19,41.6829162,44.839588,სტეფანე ჭრელაშვილის ქუჩა,4.221635883905013e-05,1841.205
2023-11-13/2023-11-19,41.6833116,44.8706053,ჯავახეთის ქუჩა,0.00035883905013192613,1114.45
2023-11-13/2023-11-19,41.6835791,44.8267092,300 არაგველის ხიდი,5.277044854881267e-05,1590.01
2023-11-13/2023-11-19,41.6843626,44.7838358,მარო მაყაშვილის აღმართი,3.16622691292876e-05,3293.41
2023-11-13/2023-11-19,41.685827,44.6936984,ვახტანგ გორგასლის I შეს.,1.0554089709762533e-05,1428.57
2023-11-13/2023-11-19,41.6860799,44.8253734,არტემ ლუსინიანის ქუჩა,1.0554089709762533e-05,1982.46
2023-11-13/2023-11-19,41.6860941,44.8883092,შუამთის ქუჩა,0.00023218997361477574,1074.07
2023-11-13/2023-11-19,41.686574,44.8804163049863,მესამე მასივი,0.0003482849604221636,963.64
2023-11-13/2023-11-19,41.6866296,44.8158428,გრიშაშვილის ქუჩა,7.387862796833773e-05,1700.0
2023-11-13/2023-11-19,41.6867619,44.8268581,ბოჭორმის ქუჩა,0.0005171503957783641,1785.71
2023-11-13/2023-11-19,41.6868415,44.7780929,თაყაიშვილის,8.443271767810026e-05,1201.785
2023-11-13/2023-11-19,41.6871874,44.8333234,ლეხ კაჩინსკის ქუჩა,0.00020052770448548813,1639.34
2023-11-13/2023-11-19,41.6872642,44.8237051,ბოდბის ქუჩის,2.1108179419525066e-05,2000.0
2023-11-13/2023-11-19,41.6872822,44.7719586,დავით გურამიშვილის ქუჩა,0.0022163588390501318,1246.17
2023-11-13/2023-11-19,41.6876703,44.8237587,თელავის ქუჩა,6.33245382585752e-05,1850.0
2023-11-13/2023-11-19,41.6877548,44.9235209,თენგიზ ჩანტლაძის ქუჩა,1.0554089709762533e-05,600.0
2023-11-13/2023-11-19,41.6878383,44.8673785,პეტრე ხვედელიძის ქუჩა,0.00011609498680738787,1200.0
2023-11-13/2023-11-19,41.6882016,44.8276203,ვაჟა ივერიელის ქუჩა,4.221635883905013e-05,1041.67
2023-11-13/2023-11-19,41.6882738,44.8111976,აბანოს I ჩიხი,1.0554089709762533e-05,1543.86
2023-11-13/2023-11-19,41.6883606,44.841389,აწყურის ქუჩა,0.0001266490765171504,1309.73
2023-11-13/2023-11-19,41.6884493,44.8103981,ბოტანიკურის ქუჩა,1.0554089709762533e-05,1823.53
2023-11-13/2023-11-19,41.6886204,44.7924503,კოჯრის გასასვლელი,2.1108179419525066e-05,2059.375
2023-11-13/2023-11-19,41.6886257,44.9786133,Tbilisi Railway Bypass,0.00027440633245382585,1105.0500000000002
2023-11-13/2023-11-19,41.6887246,44.879234,კალოუბნის ქუჩა,0.000158311345646438,1052.63
2023-11-13/2023-11-19,41.6888314,44.8204204,ფარნავაზ I,0.0016358839050131925,1194.03
2023-11-13/2023-11-19,41.68887245,44.80457257468296,ბეთლემის ეკლესია,2.1108179419525066e-05,2676.505
2023-11-13/2023-11-19,41.6889243,44.8053262,ასკანის ქუჩა,1.0554089709762533e-05,2000.0
2023-11-13/2023-11-19,41.6890089,44.7727506,ბესიკის ქუჩა,0.00016886543535620053,2403.8450000000003
2023-11-13/2023-11-19,41.6890352,44.8602673,გოჩა ონაშვილის ქუჩა,7.387862796833773e-05,1185.71
2023-11-13/2023-11-19,41.6891698,44.91521861267774,ლუკოილი,8.443271767810026e-05,3041.7250000000004
2023-11-13/2023-11-19,41.68943,44.8595197,შალვა აზმაიფარაშვილის ქუჩა,8.443271767810026e-05,1291.85
2023-11-13/2023-11-19,41.6895389,44.8565577,დიმიტრი უზნაძის ქუჩა,0.00010554089709762533,1618.965
2023-11-13/2023-11-19,41.6897908,44.86795670709502,,2.1108179419525066e-05,1287.4499999999998
2023-11-13/2023-11-19,41.6899513,44.8238325,გუთნის ქუჩა,3.16622691292876e-05,2125.0
2023-11-13/2023-11-19,41.6901124,44.8084232,კოტე აფხაზის ქუჩა,1.0554089709762533e-05,1600.0
2023-11-13/2023-11-19,41.6901517,44.81124778812327,მეტეხის ეკლესია,3.16622691292876e-05,1688.31
2023-11-13/2023-11-19,41.6902213,44.7944809,ამაღლების შეს.,0.0003271767810026385,1910.45
2023-11-13/2023-11-19,41.6904488,44.8869191,გიორგი აბაშვილის ქუჩა,0.00040105540897097627,1030.49
2023-11-13/2023-11-19,41.6904495,44.7943299,შ. მესხის ქუჩა,2.1108179419525066e-05,1575.755
2023-11-13/2023-11-19,41.6905325,44.8066268,იერუსალიმის ქუჩა,1.0554089709762533e-05,1794.87
2023-11-13/2023-11-19,41.6906301,44.7972986,პაოლო იაშვილის ქუჩა,8.443271767810026e-05,2504.67
2023-11-13/2023-11-19,41.690639000000004,44.69479108152969,წყნეთის ტყეპარკი,0.0002532981530343008,1259.26
2023-11-13/2023-11-19,41.690705,44.8045747,გიორგი ჯიბლაძის ქუჩა,1.0554089709762533e-05,2550.0
2023-11-13/2023-11-19,41.6908054,44.8233891,გიორგი ნიორაძის ქუჩა,2.1108179419525066e-05,930.56
2023-11-13/2023-11-19,41.6909142,44.8257614,ახმეტის ქუჩა,2.1108179419525066e-05,2322.115
2023-11-13/2023-11-19,41.6909594,44.7998978,ივანე მაჩაბლის ქუჩა,5.277044854881267e-05,1453.49
2023-11-13/2023-11-19,41.691032199999995,44.803629751451396,ლადო გუდიაშვილის მოედანი,1.0554089709762533e-05,3285.71
2023-11-13/2023-11-19,41.691075,44.8187847,სართიჭალის ქუჩა,2.1108179419525066e-05,887.9300000000001
2023-11-13/2023-11-19,41.6912848,44.8026872,მიხეილ ლერმონტოვის ქუჩა,0.00017941952506596306,1952.38
2023-11-13/2023-11-19,41.6913092,44.8705358,ლიზა ნაკაშიძე-ბოლქვაძის ქუჩა,2.1108179419525066e-05,1211.54
2023-11-13/2023-11-19,41.6915019,44.8341209,ჯორჯ ბუშის ქუჩა,0.00010554089709762533,1345.68
2023-11-13/2023-11-19,41.6915442,44.8183755,ალექსანდრე ბოროდინის ქუჩა,4.221635883905013e-05,1307.69
2023-11-13/2023-11-19,41.6916062,44.8706574,ვარკეთილი,1.0554089709762533e-05,1035.71
2023-11-13/2023-11-19,41.6916084,44.8043309,არუთინ საიათნოვას ქუჩა,2.1108179419525066e-05,2946.83
2023-11-13/2023-11-19,41.6918731,44.8151723,ავლაბრის მოედანი,0.00010554089709762533,2017.545
2023-11-13/2023-11-19,41.6919015,44.8043121,ქართულ-ებრაული 26 საუკუნოვანი მეგობრობის საზოგადოება,3.16622691292876e-05,1377.78
2023-11-13/2023-11-19,41.6921857,44.8175588,ირაკლი ფაღავას ქუჩა,1.0554089709762533e-05,2000.0
2023-11-13/2023-11-19,41.6922896,44.8624694,ალექსანდრე წულუკიძის ქუჩა,0.00039050131926121373,1312.5
2023-11-13/2023-11-19,41.6923942,44.8052975,ვახტანგ ბერიძის ქუჩა,7.387862796833773e-05,1776.32
2023-11-13/2023-11-19,41.6924059,44.8187545,ალექსანდრე წურწუმიას ქუჩა,4.221635883905013e-05,1641.67
2023-11-13/2023-11-19,41.6924209,44.9011319,ა. თვალჭრელიძის ქუჩა,1.0554089709762533e-05,1119.05
2023-11-13/2023-11-19,41.6930311,44.8193296,ნიკიფორე ირბახის ქუჩა,4.221635883905013e-05,2661.12
2023-11-13/2023-11-19,41.6931351,44.7958236,პეტრე ჩაიკოვსკის ქუჩა,8.443271767810026e-05,2000.0
2023-11-13/2023-11-19,41.693202,44.8580962,დავით კვაჭანტირაძის ქუჩა,8.443271767810026e-05,1214.0500000000002
2023-11-13/2023-11-19,41.6934591,44.8014495,თბილისი,0.00042216358839050134,1221.9299999999998
2023-11-13/2023-11-19,41.6935644,44.8051536,შოთა ყავლაშვილის ქუჩა,1.0554089709762533e-05,2250.0
2023-11-13/2023-11-19,41.6936215,44.7945991,დანიელ ჭონქაძის ქუჩა,2.1108179419525066e-05,2436.49
2023-11-13/2023-11-19,41.6943656,44.80171416847364,პუშკინის პარკი,3.16622691292876e-05,1682.69
2023-11-13/2023-11-19,41.6947899,44.8159154,კონსტანტინე ერისთავის ქუჩა,0.0004960422163588391,1250.4
2023-11-13/2023-11-19,41.6948246,44.794709,შიო ჩიტაძის ქუჩა,3.16622691292876e-05,2857.14
2023-11-13/2023-11-19,41.6951478,44.8048966,იეთიმ გურჯის ქუჩა,1.0554089709762533e-05,1347.52
2023-11-13/2023-11-19,41.6952649,44.8195904,მარტყოფის ქუჩა,0.00013720316622691292,887.1
2023-11-13/2023-11-19,41.6953823,44.8044122,ილია და ნინო ნაკაშიძეების ქუჩა,1.0554089709762533e-05,1782.05
2023-11-13/2023-11-19,41.6957586,44.7969814,9 აპრილის ქუჩა,2.1108179419525066e-05,3629.3900000000003
2023-11-13/2023-11-19,41.6958593,44.8027439,ვერცხლის ქუჩა,1.0554089709762533e-05,1466.67
2023-11-13/2023-11-19,41.69588645,44.78900241377039,მთაწმინდის პანთეონი,0.0001899736147757256,2204.58
2023-11-13/2023-11-19,41.6960185,44.8824055,რომანოზ ხომლელის ქუჩა,0.0004116094986807388,1113.21
2023-11-13/2023-11-19,41.696326400000004,44.79373096919663,სულხან საბას ბაღი,4.221635883905013e-05,2235.48
2023-11-13/2023-11-19,41.6964344,44.8541683,ნიკო მუსხელიშვილის ქუჩა,6.33245382585752e-05,969.24
2023-11-13/2023-11-19,41.6965575,44.7963111,პავლე ინგოროყვას შესახევი,7.387862796833773e-05,2712.77
2023-11-13/2023-11-19,41.6966207,44.8452992,მესხეთის ქუჩა,2.1108179419525066e-05,1214.2849999999999
2023-11-13/2023-11-19,41.6966766,44.7954762,ვახტანგ კოტეტიშვილის ქუჩა,2.1108179419525066e-05,1421.92
2023-11-13/2023-11-19,41.6968287,44.7933634,დიმიტრი ყიფიანის ქუჩა,0.00024274406332453825,1215.38
2023-11-13/2023-11-19,41.696858899999995,44.808268736443296,ნიკოლოზ ბარათაშვილის ხიდი,5.277044854881267e-05,2800.0
2023-11-13/2023-11-19,41.696996,44.8141498,ერევნის ქუჩა,2.1108179419525066e-05,1434.17
2023-11-13/2023-11-19,41.6970028,44.8213852,საინგილოს ქუჩა,0.00016886543535620053,1330.645
2023-11-13/2023-11-19,41.6974238,44.7936784,სერგო ფარაჯანოვის ქუჩა,2.1108179419525066e-05,1385.415
2023-11-13/2023-11-19,41.6974344,44.8105064,ელენე ახვლედიანის აღმართი,4.221635883905013e-05,2670.4049999999997
2023-11-13/2023-11-19,41.697489,44.7955152,მიხაი ზიჩის ქუჩა,0.0005488126649076517,2500.0
2023-11-13/2023-11-19,41.697589,44.7921677,ვეძინის ქუჩა,6.33245382585752e-05,1702.13
2023-11-13/2023-11-19,41.6976077,44.7965839,ტარას შევჩენკოს ქუჩა,3.16622691292876e-05,4488.19
2023-11-13/2023-11-19,41.6982234,44.8036463,ანტონ ფურცელაძის ქუჩა,1.0554089709762533e-05,3205.13
2023-11-13/2023-11-19,41.6982896,44.7933175,ზაალ ქიქოძის ქუჩა,9.49868073878628e-05,1686.05
2023-11-13/2023-11-19,41.6983438,44.8010491,რევაზ თაბუკაშვილის ქუჩა,7.387862796833773e-05,1818.18
2023-11-13/2023-11-19,41.6983773,44.8026339,ფხოვის ქუჩა,0.000158311345646438,2045.45
2023-11-13/2023-11-19,41.6986866,44.6991008,არსენას ქუჩა,4.221635883905013e-05,1626.595
2023-11-13/2023-11-19,41.6987354,44.793547,არსენა ოძელაშვილის ქუჩა,1.0554089709762533e-05,1064.52
2023-11-13/2023-11-19,41.6988754,44.8520951,შალვა მშველიძის ქუჩა,0.00020052770448548813,1184.62
2023-11-13/2023-11-19,41.699018,44.8026224,ათონელის ქუჩა,4.221635883905013e-05,2296.79
2023-11-13/2023-11-19,41.699344,44.8050557,სანაპიროს ქუჩა,3.16622691292876e-05,1328.67
2023-11-13/2023-11-19,41.6993929,44.801158754902396,გიორგი ლეონიძის ბაღი,3.16622691292876e-05,2166.67
2023-11-13/2023-11-19,41.6994363,44.8528847,შანდორ პეტეფის ქუჩა,0.0004960422163588391,1222.22
2023-11-13/2023-11-19,41.6997916,44.8102929,მ. თოიძის ქუჩა,1.0554089709762533e-05,1028.37
2023-11-13/2023-11-19,41.7000055,44.8879953,მიხეილ გახოკიძის ქუჩა,0.0001899736147757256,1126.3899999999999
2023-11-13/2023-11-19,41.7001999,44.8519182,თეოფანე დავითაიას ქუჩა,0.00010554089709762533,1317.52
2023-11-13/2023-11-19,41.7003819,44.797604,ვასილ აბაშიძის ქუჩა,1.0554089709762533e-05,1153.85
2023-11-13/2023-11-19,41.7005039,44.7757512,რევაზ ჯაფარიძის ქუჩა,5.277044854881267e-05,1993.01
2023-11-13/2023-11-19,41.7007113,44.8105415,შოთა გამცემლიძის ქუჩა,1.0554089709762533e-05,2300.0
2023-11-13/2023-11-19,41.7008101,44.8090847,ნინო ჩხეიძის ქუჩა,0.00011609498680738787,1166.67
2023-11-13/2023-11-19,41.70115155,44.93839143472633,სამგორის რაიონი,3.16622691292876e-05,817.46
2023-11-13/2023-11-19,41.7015494,44.7957882,რევაზ ლაღიძის ქუჩა,4.221635883905013e-05,2333.33
2023-11-13/2023-11-19,41.7016292,44.8000225,მარია ბროსეს ქუჩა,6.33245382585752e-05,2633.335
2023-11-13/2023-11-19,41.70167015,44.847662265370126,ვაზისუბნის 1-ლი მიკრორაიონი,0.0019525065963060687,908.33
2023-11-13/2023-11-19,41.7016807,44.8165956,Ფშავის ქუჩა,1.0554089709762533e-05,1600.0
2023-11-13/2023-11-19,41.7018156,44.7823367,ვალერიან გუნიას II გას.,6.33245382585752e-05,1666.67
2023-11-13/2023-11-19,41.7019427,44.7894119,სოლომონ ზალდასტანიშვილის ქუჩა,2.1108179419525066e-05,2222.6549999999997
2023-11-13/2023-11-19,41.702,44.8000016,პრეზიდენტ ზ. გამსახურდიას სანაპირო,2.1108179419525066e-05,1430.1
2023-11-13/2023-11-19,41.7028829,44.7901958,ე. გაბაშვილის ქუჩა,1.0554089709762533e-05,1750.97
2023-11-13/2023-11-19,41.7029189,44.7926852,შოთა რუსთაველის გამზირი,0.0001899736147757256,2400.84
2023-11-13/2023-11-19,41.7029471,44.7788582,გურამ რჩეულიშვილის ქუჩა,8.443271767810026e-05,1826.09
2023-11-13/2023-11-19,41.7029979,44.7815528,იაკობ გოგებაშვილის II ჩიხი,0.00023218997361477574,2223.935
2023-11-13/2023-11-19,41.7030702,44.7845482,ანასტასია ერისთავ-ხოშტარიას ქუჩა,0.0001266490765171504,2263.4049999999997
2023-11-13/2023-11-19,41.7035495,44.8017998,რომის ქუჩა,2.1108179419525066e-05,1405.87
2023-11-13/2023-11-19,41.7037263,44.7724829,გიორგი შატბერაშვილის ქუჩა,0.0008443271767810027,2307.69
2023-11-13/2023-11-19,41.7039551,44.8483474,ზურაბ პატარიძის ქუჩა,0.0005277044854881266,1228.07
2023-11-13/2023-11-19,41.7040318,44.7877933,Goethe-Institut in Georgien,0.000158311345646438,926.83
2023-11-13/2023-11-19,41.7040582,44.8082696,მიხეილ ბუხაიძის ქუჩა,5.277044854881267e-05,2494.91
2023-11-13/2023-11-19,41.70414255,44.79892073452957,ალექსანდრე გრიბოედოვის მოედანი,9.49868073878628e-05,2091.84
2023-11-13/2023-11-19,41.7041899,44.7855688,მიხეილ ზანდუკელის ქუჩა,3.16622691292876e-05,1722.22
2023-11-13/2023-11-19,41.7046742,44.770178,მარუხის გმირების ქუჩა,0.00016886543535620053,2250.0
2023-11-13/2023-11-19,41.7049538,44.7853533,შოთა მილორავას ქუჩა,1.0554089709762533e-05,928.57
2023-11-13/2023-11-19,41.7051737,44.7865877,თამარ ჭოველიძის ქუჩა,0.0002955145118733509,2686.775
2023-11-13/2023-11-19,41.7052411,44.7721433,ქობულეთის I. შესასვლელი,0.00036939313984168866,2147.06
2023-11-13/2023-11-19,41.7053779,44.8081745,ვეძათხევის ქუჩა,1.0554089709762533e-05,1129.36
2023-11-13/2023-11-19,41.7055727,44.7636174,აბაშელის ქუჩა,1.0554089709762533e-05,2777.78
2023-11-13/2023-11-19,41.7056321,44.72345813972045,ვაკის რაიონი,9.49868073878628e-05,1694.66
2023-11-13/2023-11-19,41.7056403,44.7785161,ლარსის ქუჩა,9.49868073878628e-05,1959.11
2023-11-13/2023-11-19,41.7056436,44.7358963,ირაკლი უჩანეიშვილის ქუჩა,7.387862796833773e-05,1516.13
2023-11-13/2023-11-19,41.7059334,44.788552,ვაშლოვანის ქუჩა,2.1108179419525066e-05,1500.0
2023-11-13/2023-11-19,41.7060477,44.7709185,მცხეთის ქუჩა,0.0004432717678100264,1988.775
2023-11-13/2023-11-19,41.706205,44.7904128,ლეო ქიაჩელის ქუჩა,0.00014775725593667546,2950.59
2023-11-13/2023-11-19,41.7063194,44.7747451,შროშის ქუჩა,0.00010554089709762533,2500.0
2023-11-13/2023-11-19,41.7063392,44.8481888,ჯუმბერ ლეჟავას I შესახვევი,0.00017941952506596306,939.7
2023-11-13/2023-11-19,41.7063539,44.7579531,ცხვედაძის ქ.,6.33245382585752e-05,1502.155
2023-11-13/2023-11-19,41.7063787,44.8029491,მიხეილ წინამძღვრიშვილის ქუჩა,0.0003271767810026385,1250.0
2023-11-13/2023-11-19,41.7064319,44.8012111,კიევის ქუჩა,1.0554089709762533e-05,1481.48
2023-11-13/2023-11-19,41.7065053,44.7668787,არაყიშვილის I ჩიხი,0.00035883905013192613,2391.3
2023-11-13/2023-11-19,41.7066772,44.7865125,მელიქიშვილის გამზირი,0.00014775725593667546,2402.7799999999997
2023-11-13/2023-11-19,41.7067619,44.7817388,სიმონ ჯანაშიას ქუჩა,0.00021108179419525067,1803.225
2023-11-13/2023-11-19,41.7068069,44.7849854,ე. ტატიშვილის ჩიხი,0.000316622691292876,1841.12
2023-11-13/2023-11-19,41.706933,44.7778367,ვასილ ბარნოვის ქუჩა,0.00035883905013192613,2195.745
2023-11-13/2023-11-19,41.706953,44.7810816,აკაკი შანიძის ქუჩა,1.0554089709762533e-05,3000.0
2023-11-13/2023-11-19,41.7071717,44.7885558,ნიკო ნიკოლაძის ქუჩა,0.0001266490765171504,1371.71
2023-11-13/2023-11-19,41.707292,44.7132838,კაკლების ქუჩა,6.33245382585752e-05,1444.83
2023-11-13/2023-11-19,41.7074231,44.7806095,ვასილ პეტრიაშვილის ქუჩა,0.00020052770448548813,2245.51
2023-11-13/2023-11-19,41.7079852,44.7739069,ზაქარია ფალიაშვილის ქუჩა,0.0006649076517150395,2121.21
2023-11-13/2023-11-19,41.7080349,44.8590477,თბილისის ზღვის ახალი ქალაქი,0.0003482849604221636,1132.08
2023-11-13/2023-11-19,41.7081421,44.7614877,ლ. კავსაძის ქუჩა,6.33245382585752e-05,2100.0
2023-11-13/2023-11-19,41.7082587,44.7935091,უ. ჩხეიძის ქუჩა,4.221635883905013e-05,2847.22
2023-11-13/2023-11-19,41.7082874,44.8055895,არნოლდ ჩიქობავას შესახვევი,3.16622691292876e-05,890.91
2023-11-13/2023-11-19,41.7082874,44.8055895,ნიკოლოზ გოცირიძის ქუჩა,1.0554089709762533e-05,1529.41
2023-11-13/2023-11-19,41.7084572,44.8062698,ზურაბ ქვლივიძის ქუჩა,6.33245382585752e-05,772.73
